city_name,population,country_code,timezone,latitude,longitude
6th of October City,368650,EG,Africa/Cairo,29.81667,31.05
A Coruña,250438,ES,Europe/Madrid,43.37135,-8.396
Aachen,265208,DE,Europe/Berlin,50.77664,6.08342
Aba,1160000,NG,Africa/Lagos,5.10658,7.36667
Abadan,370180,IR,Asia/Tehran,30.3392,48.3043
Abbottabad,275890,PK,Asia/Karachi,34.1463,73.21168
Abeokuta,735000,NG,Africa/Lagos,7.15571,3.34509
Abha,210886,SA,Asia/Riyadh,18.21639,42.50528
Abidjan,6321017,CI,Africa/Abidjan,5.35444,-4.00167
Abobo,1340083,CI,Africa/Abidjan,5.41613,-4.0159
Abomey-Calavi,385755,BJ,Africa/Porto-Novo,6.44852,2.35566
Abu Dhabi,1807000,AE,Asia/Dubai,24.45118,54.39696
Abuja,2690000,NG,Africa/Lagos,9.05785,7.49508
Abū Ghurayb,900000,IQ,Asia/Baghdad,33.30563,44.18477
Acapulco de Juárez,673479,MX,America/Mexico_City,16.84942,-99.90891
Accra,1963264,GH,Africa/Accra,5.55602,-0.1969
Ad Dīwānīyah,318801,IQ,Asia/Baghdad,31.99289,44.92552
Adachi,695043,JP,Asia/Tokyo,35.76318,139.80761
Adana,1816750,TR,Europe/Istanbul,36.98615,35.32531
Adapazarı,286787,TR,Europe/Istanbul,40.78056,30.40333
Addis Ababa,3860000,ET,Africa/Addis_Ababa,9.02497,38.74689
Adelaide,1469163,AU,Australia/Adelaide,-34.92866,138.59863
Aden,1079670,YE,Asia/Aden,12.77944,45.03667
Ado-Ekiti,435000,NG,Africa/Lagos,7.62329,5.22087
Adıyaman,267131,TR,Europe/Istanbul,37.76441,38.27629
Afyonkarahisar,251799,TR,Europe/Istanbul,38.75667,30.54333
Agadir,698310,MA,Africa/Casablanca,30.42018,-9.59815
Agartala,400004,IN,Asia/Kolkata,23.83605,91.27939
Ageo,226940,JP,Asia/Tokyo,35.97145,139.61382
Agra,1430055,IN,Asia/Kolkata,27.18333,78.01667
Aguascalientes,722250,MX,America/Mexico_City,21.88262,-102.2843
Ahilyanagar,367140,IN,Asia/Kolkata,19.09457,74.73843
Ahmedabad,6357693,IN,Asia/Kolkata,23.02579,72.58727
Ahvaz,841145,IR,Asia/Tehran,31.31901,48.6842
Aihara,725493,JP,Asia/Tokyo,35.6,139.31667
Aizawl,293416,IN,Asia/Kolkata,23.72894,92.71791
Ajegunle,550000,NG,Africa/Lagos,6.45197,3.33115
Ajman City,490035,AE,Asia/Dubai,25.40177,55.47878
Ajmer,542321,IN,Asia/Kolkata,26.4521,74.63867
Akashi,303601,JP,Asia/Tokyo,34.65524,135.00687
Akita,307672,JP,Asia/Tokyo,39.71667,140.11667
Akola,428857,IN,Asia/Kolkata,20.70957,76.9981
Akowonjo,308900,NG,Africa/Lagos,6.61012,3.30968
Aksaray,247147,TR,Europe/Istanbul,38.37255,34.02537
Aktobe,500757,KZ,Asia/Aqtobe,50.27969,57.20718
Akure,730000,NG,Africa/Lagos,7.25256,5.19312
Al Ain City,846747,AE,Asia/Dubai,24.19167,55.76056
Al Aḩmadī,637411,KW,Asia/Kuwait,29.07694,48.08389
Al Başrah al Qadīmah,2015483,IQ,Asia/Baghdad,30.50316,47.81507
Al Fayyum,519047,EG,Africa/Cairo,29.30995,30.8418
Al Hoceïma,395644,MA,Africa/Casablanca,35.25165,-3.93723
Al Hufūf,293179,SA,Asia/Riyadh,25.36467,49.58764
Al Jubayl,237274,SA,Asia/Riyadh,27.0174,49.62251
Al Kharj,425300,SA,Asia/Riyadh,24.15541,47.33457
Al Khums,201943,LY,Africa/Tripoli,32.64861,14.26191
Al Khuşūş,488904,EG,Africa/Cairo,30.15293,31.31501
Al Kūt,315162,IQ,Asia/Baghdad,32.5128,45.81817
Al Madīnah,255000,IQ,Asia/Baghdad,30.96324,47.26998
Al Mansurah,621953,EG,Africa/Cairo,31.03637,31.38069
Al Mawşil al Jadīdah,2065597,IQ,Asia/Baghdad,36.33271,43.10555
Al Maḩallah al Kubrá,592573,EG,Africa/Cairo,30.97063,31.1669
Al Maḩmūdīyah,350000,IQ,Asia/Baghdad,33.06221,44.36564
Al Mubarraz,290802,SA,Asia/Riyadh,25.40768,49.59028
Al Qadarif,363945,SD,Africa/Khartoum,14.03493,35.38344
Al Qurnah,286073,IQ,Asia/Baghdad,31.01547,47.43362
Al Qāhirah al Jadīdah,313139,EG,Africa/Cairo,30.04214,31.44446
Al Ḩasakah,422445,SY,Asia/Damascus,36.50237,40.74772
Al Ḩillah,455700,IQ,Asia/Baghdad,32.46367,44.41963
Al Ḩudaydah,734699,YE,Asia/Aden,14.79781,42.95452
Al ‘Amārah,323302,IQ,Asia/Baghdad,31.83561,47.14483
Al ‘Āshir min Ramaḑān,246148,EG,Africa/Cairo,30.29636,31.74633
Alanya,364180,TR,Europe/Istanbul,36.54375,31.99982
Alappuzha,240991,IN,Asia/Kolkata,9.49004,76.3264
Albuquerque,564559,US,America/Denver,35.08449,-106.65114
Aleppo,2098210,SY,Asia/Damascus,36.20124,37.16117
Alexandria,5263542,EG,Africa/Cairo,31.20176,29.91582
Algiers,2364230,DZ,Africa/Algiers,36.73225,3.08746
Aliayabiagba,228000,NG,Africa/Lagos,6.45,3.33333
Alicante,348901,ES,Europe/Madrid,38.34517,-0.48149
Alimosho,308290,NG,Africa/Lagos,6.60656,3.30235
Almaty,1977011,KZ,Asia/Almaty,43.25249,76.9115
Almendares,240000,CU,America/Havana,23.11012,-82.42322
Alor Setar,417800,MY,Asia/Kuala_Lumpur,6.12104,100.36014
Alto Barinas,284289,VE,America/Caracas,8.5931,-70.2261
Altona,250192,DE,Europe/Berlin,53.55,9.93333
Alwar,322568,IN,Asia/Kolkata,27.56246,76.625
Alīgarh,753207,IN,Asia/Kolkata,27.88145,78.07464
Amagasaki,459593,JP,Asia/Tokyo,34.71667,135.41667
Amarapura,237618,MM,Asia/Yangon,21.90709,96.04894
Ambarnath,253475,IN,Asia/Kolkata,19.2,73.16667
Ambato,387309,EC,America/Guayaquil,-1.24908,-78.61675
Ambattur,466205,IN,Asia/Kolkata,13.09818,80.16152
Ambon,347288,ID,Asia/Jayapura,-3.69583,128.18333
Americana,246655,BR,America/Sao_Paulo,-22.73917,-47.33139
Amman,1275857,JO,Asia/Amman,31.95522,35.94503
Amravati,647057,IN,Asia/Kolkata,20.93333,77.75
Amritsar,1159227,IN,Asia/Kolkata,31.62234,74.87534
Amsterdam,741636,NL,Europe/Amsterdam,52.37403,4.88969
An Nhơn,308396,VN,Asia/Ho_Chi_Minh,13.88579,109.10823
Anaheim,350742,US,America/Los_Angeles,33.83529,-117.9145
Anand,209410,IN,Asia/Kolkata,22.55251,72.9552
Ananindeua,433956,BR,America/Belem,-1.36556,-48.37222
Anantapur,267161,IN,Asia/Kolkata,14.67784,77.60813
Anchorage,289600,US,America/Anchorage,61.21806,-149.90028
Andijon,747800,UZ,Asia/Tashkent,40.78338,72.35067
Angarsk,243158,RU,Asia/Irkutsk,52.55968,103.91413
Angeles City,299391,PH,Asia/Manila,15.15,120.58333
Ankang,870126,CN,Asia/Shanghai,32.68,109.01722
Ankara,3517182,TR,Europe/Istanbul,39.91987,32.85427
Annaba,342703,DZ,Africa/Algiers,36.9,7.76667
Anqing,804493,CN,Asia/Shanghai,30.51365,117.04723
Anqiu,364208,CN,Asia/Shanghai,36.43417,119.1925
Ansan-si,623256,KR,Asia/Seoul,37.32361,126.82194
Anshan,1450000,CN,Asia/Shanghai,41.12361,122.99
Anshun,765313,CN,Asia/Shanghai,26.25,105.93333
Antakya,210000,TR,Europe/Istanbul,36.20655,36.15722
Antalya,1344000,TR,Europe/Istanbul,36.90812,30.69556
Antananarivo,1349501,MG,Indian/Antananarivo,-18.91368,47.53613
Antipolo,887399,PH,Asia/Manila,14.62578,121.12251
Antofagasta,401096,CL,America/Santiago,-23.65094,-70.39752
Antsirabe,260907,MG,Indian/Antananarivo,-19.86586,47.03333
Antwerpen,529247,BE,Europe/Brussels,51.22047,4.40026
Anyang,1146839,CN,Asia/Shanghai,36.096,114.38278
Anyang-si,595644,KR,Asia/Seoul,37.3925,126.92694
Anápolis,319587,BR,America/Sao_Paulo,-16.32667,-48.95278
Aomori,298394,JP,Asia/Tokyo,40.81667,140.73333
Aparecida de Goiânia,510770,BR,America/Sao_Paulo,-16.82333,-49.24389
Aqsu,535657,CN,Asia/Urumqi,41.18418,80.27921
Ar Raqqah,531952,SY,Asia/Damascus,35.95283,39.00788
Ar Rayyān,272465,QA,Asia/Qatar,25.29194,51.42444
Aracaju,664908,BR,America/Maceio,-10.91111,-37.07167
Arakawa,216900,JP,Asia/Tokyo,35.73825,139.78047
Aral,260000,CN,Asia/Urumqi,40.54184,81.26566
Arapiraca,243661,BR,America/Maceio,-9.7525,-36.66111
Arba Minch,201000,ET,Africa/Addis_Ababa,6.03333,37.55
Archway,215667,GB,Europe/London,51.56733,-0.13415
Ardabīl,410753,IR,Asia/Tehran,38.2498,48.2933
Arequipa,1008290,PE,America/Lima,-16.39899,-71.53747
Arica,241653,CL,America/Santiago,-18.47552,-70.30058
Arkhangel'sk,349742,RU,Europe/Moscow,64.54717,40.55291
Arlington,388125,US,America/Chicago,32.73569,-97.10807
Arlington,207627,US,America/New_York,38.88101,-77.10428
Armenia,304314,CO,America/Bogota,4.53656,-75.67263
Arrah,261430,IN,Asia/Kolkata,25.55629,84.66335
Arroyo Naranjo,210053,CU,America/Havana,23.03811,-82.37703
Artux,285000,CN,Asia/Urumqi,39.70842,76.17971
Arusha,617631,TZ,Africa/Dar_es_Salaam,-3.36667,36.68333
Arāk,503647,IR,Asia/Tehran,34.09493,49.69809
As Sulaymānīyah,878146,IQ,Asia/Baghdad,35.56496,45.4329
Asahikawa,333530,JP,Asia/Tokyo,43.77063,142.36489
Ashdod,226838,IL,Asia/Jerusalem,31.79213,34.64966
Ashgabat,727700,TM,Asia/Ashgabat,37.95,58.38333
Asmara,563930,ER,Africa/Asmara,15.33805,38.93184
Assiut,528669,EG,Africa/Cairo,27.18096,31.18368
Astana,345604,KZ,Asia/Almaty,51.1801,71.44598
Astrakhan,533925,RU,Europe/Astrakhan,46.34968,48.04076
Asunción,1482200,PY,America/Asuncion,-25.28646,-57.647
Aswān,379774,EG,Africa/Cairo,24.09082,32.89942
Atani,230000,NG,Africa/Lagos,6.01277,6.74768
Ataşehir,361615,TR,Europe/Istanbul,40.9833,29.1167
Athens,664046,GR,Europe/Athens,37.98376,23.72784
Athlone,237414,ZA,Africa/Johannesburg,-33.96722,18.50214
Atlanta,510823,US,America/New_York,33.749,-84.38798
Atsiaman,202932,GH,Africa/Accra,5.69775,-0.32824
Atsugi,223960,JP,Asia/Tokyo,35.44272,139.36931
Atyrau,290700,KZ,Asia/Atyrau,47.1048,51.88427
Auckland,1530500,NZ,Pacific/Auckland,-36.84853,174.76349
Augsburg,259196,DE,Europe/Berlin,48.37154,10.89851
Aurangabad,1175116,IN,Asia/Kolkata,19.87757,75.34226
Aurora,200661,US,America/Chicago,41.76058,-88.32007
Aurora,359407,US,America/Denver,39.72943,-104.83192
Austin,974447,US,America/Chicago,30.26715,-97.74306
Avadi,345996,IN,Asia/Kolkata,13.1147,80.10981
Awasa,422200,ET,Africa/Addis_Ababa,7.06205,38.47635
Az Zāwīyah,200000,LY,Africa/Tripoli,32.7571,12.72764
Azcapotzalco,414711,MX,America/Mexico_City,19.48698,-99.18594
Ba Dinh,221893,VN,Asia/Bangkok,21.03652,105.82684
Bab Ezzouar,275630,DZ,Africa/Algiers,36.72615,3.18291
Bachuan,208520,CN,Asia/Shanghai,29.84863,106.05046
Bacolod City,454898,PH,Asia/Manila,10.66667,122.95
Bacoor,356974,PH,Asia/Manila,14.45896,120.93851
Badalona,217741,ES,Europe/Madrid,41.45004,2.24741
Bade,209148,TW,Asia/Taipei,24.92981,121.28372
Bafoussam,373268,CM,Africa/Douala,5.47775,10.41759
Bagerhat,266388,BD,Asia/Dhaka,22.65657,89.79123
Baghdad,7216000,IQ,Asia/Baghdad,33.34058,44.40088
Bago,244376,MM,Asia/Yangon,17.33521,96.48135
Bagong Silang,261729,PH,Asia/Manila,14.7783,121.04487
Baguio,272714,PH,Asia/Manila,16.41639,120.59306
Bahawalnagar,241873,PK,Asia/Karachi,29.99835,73.25272
Bahawalpur,903795,PK,Asia/Karachi,29.39779,71.6752
Bahir Dar,350000,ET,Africa/Addis_Ababa,11.59364,37.39077
Bahçelievler,576799,TR,Europe/Istanbul,41.00231,28.8598
Bahía Blanca,299101,AR,America/Argentina/Buenos_Aires,-38.7176,-62.26545
Baicheng,316970,CN,Asia/Shanghai,45.61751,122.83302
Baise,686078,CN,Asia/Shanghai,23.89013,106.62684
Baiyin,294400,CN,Asia/Shanghai,36.54696,104.17023
Bakersfield,373640,US,America/Los_Angeles,35.37329,-119.01871
Baku,1116513,AZ,Asia/Baku,40.37767,49.89201
Balikpapan,695287,ID,Asia/Makassar,-1.26753,116.82887
Ballari,410445,IN,Asia/Kolkata,15.14205,76.92398
Baltimore,585708,US,America/New_York,39.29038,-76.61219
Balıkesir,238151,TR,Europe/Istanbul,39.64917,27.88611
Bamako,4227569,ML,Africa/Bamako,12.60915,-7.97522
Bamenda,420445,CM,Africa/Douala,5.9597,10.14597
Banan,508703,CN,Asia/Shanghai,29.37861,106.54
Banda Aceh,255029,ID,Asia/Jakarta,5.54167,95.33333
Bandar Abbas,352173,IR,Asia/Tehran,27.1865,56.2808
Bandar Lampung,1166066,ID,Asia/Jakarta,-5.42917,105.26111
Bandar Seri Alam,220000,MY,Asia/Kuala_Lumpur,1.50434,103.87525
Bandar Sunway,200000,MY,Asia/Kuala_Lumpur,3.0693,101.6074
Bandar Utama,200000,MY,Asia/Kuala_Lumpur,3.14818,101.61407
Bandundu Province,202904,CD,Africa/Kinshasa,-3.31687,17.38063
Bandung,2444160,ID,Asia/Jakarta,-6.92222,107.60694
Bangkok,5104476,TH,Asia/Bangkok,13.75398,100.50144
Bangui,812407,CF,Africa/Bangui,4.36122,18.55496
Banja Luka,221106,BA,Europe/Sarajevo,44.77842,17.19386
Banjar,200970,ID,Asia/Jakarta,-7.1955,107.4313
Banjarmasin,657663,ID,Asia/Makassar,-3.31987,114.59075
Bannu,1357890,PK,Asia/Karachi,32.98527,70.60403
Banqiao,551221,TW,Asia/Taipei,25.01427,121.46719
Banī Suwayf,273151,EG,Africa/Cairo,29.07441,31.09785
Bao'an,4476554,CN,Asia/Shanghai,22.55213,113.88288
Baoding,2739887,CN,Asia/Shanghai,38.87288,115.46246
Baoji,1437802,CN,Asia/Shanghai,34.36775,107.23705
Baoshan,935618,CN,Asia/Shanghai,25.11626,99.16366
Baotou,2150000,CN,Asia/Shanghai,40.6516,109.84389
Baranagar,260072,IN,Asia/Kolkata,22.64132,88.37727
Barcelona,1620343,ES,Europe/Madrid,41.38879,2.15899
Barcelona,815141,VE,America/Caracas,10.1384,-64.68769
Barddhamān,301725,IN,Asia/Kolkata,23.25572,87.85691
Bareilly,745435,IN,Asia/Kolkata,28.36678,79.43167
Bari,316491,IT,Europe/Rome,41.12066,16.86982
Bariadi,260927,TZ,Africa/Dar_es_Salaam,-2.8,33.98333
Barinas,397279,VE,America/Caracas,8.62064,-70.23105
Barishal,202242,BD,Asia/Dhaka,22.70497,90.37013
Barnaul,632372,RU,Asia/Barnaul,53.3598,83.7456
Barquisimeto,1240714,VE,America/Caracas,10.0647,-69.35703
Barranquilla,1206319,CO,America/Bogota,10.96854,-74.78132
Barueri,316473,BR,America/Sao_Paulo,-23.51056,-46.87611
Baruta,244216,VE,America/Caracas,10.43424,-66.87558
Basrah,1326564,IQ,Asia/Baghdad,30.50852,47.7804
Basuo,444458,CN,Asia/Shanghai,19.10267,108.66565
Batam,1164352,ID,Asia/Jakarta,1.14937,104.02491
Batangas,237370,PH,Asia/Manila,13.7567,121.0584
Bathinda,285788,IN,Asia/Kolkata,30.20747,74.93893
Batikent,300000,TR,Europe/Istanbul,39.96833,32.73083
Batman,452157,TR,Europe/Istanbul,37.88738,41.13221
Batna City,289504,DZ,Africa/Algiers,35.55597,6.17414
Baton Rouge,227470,US,America/Chicago,30.44332,-91.18747
Battagram,700000,PK,Asia/Karachi,34.67719,73.02329
Batu,221714,ID,Asia/Jakarta,-7.87,112.52833
Batu Caves,254083,MY,Asia/Kuala_Lumpur,3.238,101.682
Bauchi,693700,NG,Africa/Lagos,10.31032,9.84388
Bauru,379297,BR,America/Sao_Paulo,-22.31472,-49.06056
Bawshar,383257,OM,Asia/Muscat,23.57769,58.39982
Bayamón,203499,PR,America/Puerto_Rico,18.39856,-66.15572
Bayan Nur,1760000,CN,Asia/Shanghai,40.74143,107.38599
Bağcılar,749024,TR,Europe/Istanbul,41.03903,28.85671
Bedok New Town,276990,SG,Asia/Singapore,1.32639,103.94167
Begusarai,252008,IN,Asia/Kolkata,25.41853,86.13389
Bei'an,436444,CN,Asia/Shanghai,48.26667,126.6
Beibei,247702,CN,Asia/Shanghai,29.82739,106.43645
Beihai,525329,CN,Asia/Shanghai,21.48349,109.11549
Beijing,18960744,CN,Asia/Shanghai,39.9075,116.39723
Beira,687764,MZ,Africa/Maputo,-19.84361,34.83889
Beirut,1916100,LB,Asia/Beirut,33.89332,35.50157
Bekasi,2564940,ID,Asia/Jakarta,-6.2349,106.9896
Belagavi,490045,IN,Asia/Kolkata,15.85212,74.50447
Belfast,348005,GB,Europe/London,54.59682,-5.92541
Belford Roxo,466096,BR,America/Sao_Paulo,-22.76417,-43.39944
Belgorod,345289,RU,Europe/Moscow,50.61074,36.58015
Belgrade,1273651,RS,Europe/Belgrade,44.80401,20.46513
Bello,392939,CO,America/Bogota,6.33732,-75.55795
Belo Horizonte,2721564,BR,America/Sao_Paulo,-19.92083,-43.93778
Belém,1499641,BR,America/Belem,-1.45583,-48.50444
Bengaluru,8495492,IN,Asia/Kolkata,12.97194,77.59369
Bengbu,972784,CN,Asia/Shanghai,32.94083,117.36083
Benghazi,757490,LY,Africa/Tripoli,32.11486,20.06859
Bengkulu,373591,ID,Asia/Jakarta,-3.80044,102.26554
Benguela,555124,AO,Africa/Luanda,-12.57674,13.40268
Beni Mellal,210397,MA,Africa/Casablanca,32.33725,-6.34983
Benin City,1782000,NG,Africa/Lagos,6.33815,5.62575
Benito Juarez,355017,MX,America/Mexico_City,19.3984,-99.15766
Benito Juárez,385439,MX,America/Mexico_City,19.3727,-99.1564
Benoni,605344,ZA,Africa/Johannesburg,-26.18848,28.32078
Benxi,987717,CN,Asia/Shanghai,41.28861,123.765
Berbera,242344,SO,Africa/Mogadishu,10.43959,45.01432
Bergen,294029,NO,Europe/Oslo,60.39299,5.32415
Berlin,3426354,DE,Europe/Berlin,52.52437,13.41053
Betim,384000,BR,America/Sao_Paulo,-19.96778,-44.19833
Bexley,228000,GB,Europe/London,51.44162,0.14866
Bharatpur,252838,IN,Asia/Kolkata,27.21731,77.49009
Bharatpur,369377,NP,Asia/Kathmandu,27.6768,84.43589
Bhavnagar,605882,IN,Asia/Kolkata,21.76287,72.15331
Bhayandar,809378,IN,Asia/Kolkata,19.30157,72.85107
Bhilai,627734,IN,Asia/Kolkata,21.20919,81.4285
Bhilwara,359483,IN,Asia/Kolkata,25.34707,74.64081
Bhimber,342900,PK,Asia/Karachi,32.97465,74.07846
Bhiwandi,874032,IN,Asia/Kolkata,19.30023,73.05881
Bhopal,1798218,IN,Asia/Kolkata,23.25469,77.40289
Bhubaneswar,885363,IN,Asia/Kolkata,20.27241,85.83385
Bhāgalpur,400146,IN,Asia/Kolkata,25.24446,86.97183
Bhātpāra,483129,IN,Asia/Kolkata,22.86643,88.40113
Bhātāra,324300,BD,Asia/Dhaka,23.8,90.45
Białystok,291855,PL,Europe/Warsaw,53.13333,23.16433
Bida,400000,NG,Africa/Lagos,9.08044,6.0099
Bidar,216020,IN,Asia/Kolkata,17.90802,77.51524
Bielefeld,331906,DE,Europe/Berlin,52.03333,8.53333
Bihār Sharīf,297268,IN,Asia/Kolkata,25.20084,85.52389
Bijie,1137383,CN,Asia/Shanghai,27.30193,105.28627
Bikaner,644406,IN,Asia/Kolkata,28.01762,73.31495
Bila Tserkva,207273,UA,Europe/Kyiv,49.8004,30.12851
Bilbao,347342,ES,Europe/Madrid,43.26271,-2.92528
Bilimora,510879,IN,Asia/Kolkata,20.76957,72.96134
Bilāspur,365579,IN,Asia/Kolkata,22.08005,82.15543
Bimbo,348802,CF,Africa/Bangui,4.25671,18.41583
Binangonan,219204,PH,Asia/Manila,14.4646,121.1929
Binhe,278055,CN,Asia/Shanghai,32.68833,112.8275
Binjai,279302,ID,Asia/Jakarta,3.6001,98.4854
Binzhou,682717,CN,Asia/Shanghai,37.36667,118.01667
Biratnagar,244750,NP,Asia/Kathmandu,26.45505,87.27007
Birgañj,268273,NP,Asia/Kathmandu,27.01709,84.8808
Birkenhead,325264,GB,Europe/London,53.39337,-3.01479
Birmingham,1157603,GB,Europe/London,52.48142,-1.89983
Bishan,204702,CN,Asia/Shanghai,29.59491,106.22476
Bishkek,900000,KG,Asia/Bishkek,42.87,74.59
Bishoftu,207400,ET,Africa/Addis_Ababa,8.75225,38.97846
Biskra,204661,DZ,Africa/Algiers,34.85038,5.72805
Bissau,439704,GW,Africa/Bissau,11.86357,-15.59767
Bitung,225134,ID,Asia/Makassar,1.44059,125.12824
Biysk,215430,RU,Asia/Barnaul,52.53423,85.19661
Biên Hòa,1272235,VN,Asia/Ho_Chi_Minh,10.94469,106.82432
Biñan,300000,PH,Asia/Manila,14.34267,121.08071
Blagoveshchensk,225091,RU,Asia/Yakutsk,50.27961,127.5405
Blantyre,902588,MW,Africa/Blantyre,-15.78499,35.00854
Blida,331779,DZ,Africa/Algiers,36.47004,2.8277
Bloemfontein,556637,ZA,Africa/Johannesburg,-29.12107,26.214
Blumenau,361855,BR,America/Sao_Paulo,-26.91944,-49.06611
Bnei Brak,214444,IL,Asia/Jerusalem,32.08074,34.8338
Boa Vista,419652,BR,America/Boa_Vista,2.81972,-60.67333
Bobo-Dioulasso,904920,BF,Africa/Ouagadougou,11.17715,-4.2979
Bobruysk,207351,BY,Europe/Minsk,53.14636,29.20552
Bochum,385729,DE,Europe/Berlin,51.48165,7.21648
Bogor,1127408,ID,Asia/Jakarta,-6.59444,106.78917
Bogotá,7674366,CO,America/Bogota,4.60971,-74.08175
Bogra,210000,BD,Asia/Dhaka,24.85098,89.37108
Boise,235684,US,America/Boise,43.6135,-116.20345
Boksburg,445168,ZA,Africa/Johannesburg,-26.21197,28.25958
Bokāro,564319,IN,Asia/Kolkata,23.66934,86.15161
Bole,235585,CN,Asia/Shanghai,44.89334,82.06993
Bologna,394843,IT,Europe/Rome,44.49381,11.33875
Boma,297009,CD,Africa/Kinshasa,-5.85098,13.05364
Bonn,330579,DE,Europe/Berlin,50.73438,7.09549
Borama,597842,SO,Africa/Mogadishu,9.93611,43.18278
Bordeaux,260958,FR,Europe/Paris,44.84044,-0.5805
Borivli,609617,IN,Asia/Kolkata,19.23496,72.85976
Borūjerd,251958,IR,Asia/Tehran,33.8973,48.7516
Boston,653833,US,America/New_York,42.35843,-71.05977
Botshabelo,309714,ZA,Africa/Johannesburg,-29.26737,26.72595
Bouaké,832371,CI,Africa/Abidjan,7.69385,-5.03031
Bozhou,1409436,CN,Asia/Shanghai,33.87722,115.77028
Bradford,366187,GB,Europe/London,53.79391,-1.75206
Brahmapur,356598,IN,Asia/Kolkata,19.31151,84.7929
Brakpan,305692,ZA,Africa/Johannesburg,-26.23656,28.36938
Brampton,656480,CA,America/Toronto,43.68341,-79.76633
Brasilandia,243273,BR,America/Sao_Paulo,-23.44859,-46.68839
Brasília,2207718,BR,America/Sao_Paulo,-15.77972,-47.92972
Bratislava,423737,SK,Europe/Bratislava,48.14816,17.10674
Bratsk,256600,RU,Asia/Irkutsk,56.1325,101.61417
Braunschweig,244715,DE,Europe/Berlin,52.26594,10.52673
Brazzaville,1982000,CG,Africa/Brazzaville,-4.26613,15.28318
Braşov,253200,RO,Europe/Bucharest,45.64861,25.60613
Bremen,546501,DE,Europe/Berlin,53.07582,8.80717
Brent,329100,GB,Europe/London,51.55306,-0.3023
Brescia,200423,IT,Europe/Rome,45.53558,10.21472
Brest,344470,BY,Europe/Minsk,52.10894,23.71749
Brighton,277103,GB,Europe/London,50.82838,-0.13947
Brisbane,2780063,AU,Australia/Brisbane,-27.46794,153.02809
Bristol,479024,GB,Europe/London,51.45523,-2.59665
Brno,379466,CZ,Europe/Prague,49.19522,16.60796
Brooklyn,2736074,US,America/New_York,40.6501,-73.94958
Brussels,1019022,BE,Europe/Brussels,50.85045,4.34878
Bryansk,427236,RU,Europe/Moscow,53.25209,34.37167
Brāhmanbāria,264326,BD,Asia/Dhaka,23.97464,91.11228
Bucaramanga,581130,CO,America/Bogota,7.125,-73.11895
Bucharest,1877155,RO,Europe/Bucharest,44.43225,26.10626
Bucheon-si,850731,KR,Asia/Seoul,37.49889,126.78306
Budapest,1741041,HU,Europe/Budapest,47.49835,19.04045
Budta,1273715,PH,Asia/Manila,7.20417,124.43972
Buenaventura,240387,CO,America/Bogota,3.8801,-77.03116
Buenaventura,432385,CO,America/Bogota,3.58333,-77
Buenavista,206081,MX,America/Mexico_City,19.60833,-99.16944
Buenos Aires,2891082,AR,America/Argentina/Buenos_Aires,-34.61315,-58.37723
Buffalo,258071,US,America/New_York,42.88645,-78.87837
Bujumbura,769317,BI,Africa/Bujumbura,-3.38193,29.36142
Bukavu,816811,CD,Africa/Lubumbashi,-2.49077,28.84281
Bukhara,280187,UZ,Asia/Samarkand,39.77026,64.43069
Bukit Jalil,200000,MY,Asia/Kuala_Lumpur,3.04913,101.68036
Bukit Mertajam,212329,MY,Asia/Kuala_Lumpur,5.36301,100.4667
Bukit Rahman Putra,607000,MY,Asia/Kuala_Lumpur,3.21727,101.5608
Bulawayo,665952,ZW,Africa/Harare,-20.15,28.58333
Bunamwaya,413400,UG,Africa/Kampala,0.25344,32.55723
Bunia,399282,CD,Africa/Lubumbashi,1.55941,30.25224
Bunkyo,240069,JP,Asia/Tokyo,35.5331,139.4217
Buraydah,745353,SA,Asia/Riyadh,26.32599,43.97497
Burhānpur,210886,IN,Asia/Kolkata,21.30868,76.23026
Burnaby,249125,CA,America/Vancouver,49.26636,-122.95263
Bursa,3101833,TR,Europe/Istanbul,40.19559,29.06013
Busan,3343903,KR,Asia/Seoul,35.10168,129.03004
Butembo,286242,CD,Africa/Lubumbashi,0.14164,29.29117
Butuan,309709,PH,Asia/Manila,8.94917,125.54361
Buôn Ma Thuột,434256,VN,Asia/Ho_Chi_Minh,12.66747,108.03775
Bydgoszcz,366452,PL,Europe/Warsaw,53.1235,18.00762
Bégoua,264067,CF,Africa/Bangui,4.45437,18.53475
Bābol,202796,IR,Asia/Tehran,36.55102,52.6786
Bāli,296973,IN,Asia/Kolkata,22.64859,88.34115
Bāndarban,495272,BD,Asia/Dhaka,22.19534,92.21946
Bārāsat,298127,IN,Asia/Kolkata,22.72154,88.48198
Būkān,213331,IR,Asia/Tehran,36.521,46.2089
Bắc Giang,450000,VN,Asia/Bangkok,21.27307,106.1946
Bắc Ninh,287658,VN,Asia/Bangkok,21.18608,106.07631
Bắc Từ Liêm,340605,VN,Asia/Ho_Chi_Minh,21.06532,105.74661
Bến Cát,364578,VN,Asia/Ho_Chi_Minh,11.15,106.6
Cabanatuan City,327325,PH,Asia/Manila,15.48586,120.96648
Cabimas,351736,VE,America/Caracas,10.39907,-71.45206
Cabinda,550000,AO,Africa/Luanda,-5.56198,12.19476
Cabo de Santo Agostinho,216969,BR,America/Recife,-8.28773,-35.02925
Cabo Frio,238166,BR,America/Sao_Paulo,-22.88717,-42.02622
Cabuyao,308745,PH,Asia/Manila,14.2726,121.1262
Cagayan de Oro,728402,PH,Asia/Manila,8.48222,124.64722
Cainta,283172,PH,Asia/Manila,14.5786,121.1222
Cairo,9606916,EG,Africa/Cairo,30.06263,31.24967
Cajamarca,201329,PE,America/Lima,-7.16378,-78.50027
Calabar,540000,NG,Africa/Lagos,4.95893,8.32695
Calamba,539671,PH,Asia/Manila,14.21167,121.16528
Calgary,1306784,CA,America/Edmonton,51.05011,-114.08529
Cali,2392877,CO,America/Bogota,3.43054,-76.5199
Callao,1300000,PE,America/Lima,-12.05162,-77.13452
Caloocan City,1661584,PH,Asia/Manila,14.64953,120.96788
Camagüey,347562,CU,America/Havana,21.38083,-77.91694
Camayenne,1871242,GN,Africa/Conakry,9.535,-13.68778
Campeche,220389,MX,America/Merida,19.84073,-90.51676
Campina Grande,348936,BR,America/Fortaleza,-7.23056,-35.88111
Campinas,1031554,BR,America/Sao_Paulo,-22.90556,-47.06083
Campo Grande,906092,BR,America/Campo_Grande,-20.44278,-54.64639
Campo Limpo,236162,BR,America/Sao_Paulo,-23.63634,-46.76565
Campos dos Goytacazes,511168,BR,America/Sao_Paulo,-21.75227,-41.33044
Canberra,367752,AU,Australia/Sydney,-35.28346,149.12807
Cancún,628306,MX,America/Cancun,21.17429,-86.84656
Cangzhou,527681,CN,Asia/Shanghai,38.31124,116.85334
Canoas,328291,BR,America/Sao_Paulo,-29.91778,-51.18361
Cao Lãnh,211912,VN,Asia/Ho_Chi_Minh,10.46017,105.63294
Capao Redondo,270767,BR,America/Sao_Paulo,-23.66877,-46.78051
Cape Coast,212426,GH,Africa/Accra,5.10535,-1.2466
Cape Town,4772846,ZA,Africa/Johannesburg,-33.92584,18.42322
Carabanchel,253678,ES,Europe/Madrid,40.39094,-3.7242
Caracas,3000000,VE,America/Caracas,10.48801,-66.87919
Carapicuíba,386984,BR,America/Sao_Paulo,-23.52272,-46.835
Cardiff,372089,GB,Europe/London,51.48,-3.18
Cariacica,353491,BR,America/Sao_Paulo,-20.26389,-40.42
Carrefour,442156,HT,America/Port-au-Prince,18.54114,-72.39922
Cartagena,914552,CO,America/Bogota,10.39817,-75.49328
Cartagena,213943,ES,Europe/Madrid,37.60197,-0.98397
Caruaru,402290,BR,America/Recife,-8.28333,-35.97611
Casablanca,3665954,MA,Africa/Casablanca,33.58831,-7.61138
Cascavel,257172,BR,America/Sao_Paulo,-24.95583,-53.45528
Catania,311584,IT,Europe/Rome,37.49223,15.07041
Caucaia,355679,BR,America/Fortaleza,-3.73611,-38.65306
Caxias do Sul,381270,BR,America/Sao_Paulo,-29.16806,-51.17944
Cebu City,964169,PH,Asia/Manila,10.31672,123.89071
Ceilândia,287023,BR,America/Sao_Paulo,-15.8091,-48.13096
Celaya,340387,MX,America/Mexico_City,20.52353,-100.8157
Centralniy,214625,RU,Europe/Moscow,59.93111,30.36072
Centurion,236580,ZA,Africa/Johannesburg,-25.85891,28.18577
Chakwama,200000,NG,Africa/Lagos,11.55965,9.66407
Chandigarh,970602,IN,Asia/Kolkata,30.73629,76.7884
Chandler,260828,US,America/Phoenix,33.30616,-111.84125
Chang-hua,226564,TW,Asia/Taipei,24.07327,120.56276
Changam-ch'on,207299,KP,Asia/Pyongyang,40.60611,128.78194
Changchun,4714996,CN,Asia/Shanghai,43.88,125.32278
Changde,1457419,CN,Asia/Shanghai,29.03205,111.69844
Changhua,226564,TW,Asia/Taipei,24.0692,120.5512
Changle,259161,CN,Asia/Shanghai,36.70583,118.8275
Changsha,688242,CN,Asia/Shanghai,22.38124,112.68492
Changsha,3093980,CN,Asia/Shanghai,28.19874,112.97087
Changshu,1677050,CN,Asia/Shanghai,31.64615,120.74221
Changwon,1025702,KR,Asia/Seoul,35.22806,128.68111
Changyi,302072,CN,Asia/Shanghai,36.85361,119.39083
Changzheng,229925,CN,Asia/Shanghai,31.23913,121.36779
Changzhi,1214940,CN,Asia/Shanghai,36.18389,113.10528
Changzhi,699514,CN,Asia/Shanghai,35.20889,111.73861
Changzhou,3290918,CN,Asia/Shanghai,31.77359,119.95401
Chaoyang,410005,CN,Asia/Shanghai,41.57028,120.45861
Chaozhou,1750945,CN,Asia/Shanghai,23.65396,116.62262
Charleroi,200132,BE,Europe/Brussels,50.41136,4.44448
Charlotte,911311,US,America/New_York,35.22709,-80.84313
Chattogram,3920222,BD,Asia/Dhaka,22.3384,91.83168
Cheboksary,492331,RU,Europe/Moscow,56.13222,47.25194
Chelyabinsk,1202371,RU,Asia/Yekaterinburg,55.15402,61.42915
Chemnitz,247220,DE,Europe/Berlin,50.8357,12.92922
Chengde,449325,CN,Asia/Shanghai,40.9519,117.95883
Chengdu,13568357,CN,Asia/Shanghai,30.66667,104.06667
Chengzhong,265886,CN,Asia/Shanghai,30.94454,113.55284
Chennai,4681087,IN,Asia/Kolkata,13.08784,80.27847
Chenzhou,822534,CN,Asia/Shanghai,25.8,113.03333
Cheonan,658831,KR,Asia/Seoul,36.8065,127.1522
Cheongju-si,853938,KR,Asia/Seoul,36.63722,127.48972
Cherepovets,315738,RU,Europe/Moscow,59.13333,37.9
Cherkasy,272651,UA,Europe/Kyiv,49.44452,32.05738
Chernihiv,285234,UA,Europe/Kyiv,51.50541,31.28656
Chernivtsi,265471,UA,Europe/Kyiv,48.29045,25.93241
Chesapeake,235429,US,America/New_York,36.81904,-76.27494
Chiayi City,263188,TW,Asia/Taipei,23.47917,120.44889
Chiba,979768,JP,Asia/Tokyo,35.6,140.11667
Chicago,2664452,US,America/Chicago,41.85003,-87.65005
Chiclayo,552508,PE,America/Lima,-6.77008,-79.85495
Chifeng,346654,CN,Asia/Shanghai,42.26833,118.96361
Chigasaki,242798,JP,Asia/Tokyo,35.33638,139.40434
Chihuahua,925762,MX,America/Chihuahua,28.63528,-106.08889
Chilanzar,260700,UZ,Asia/Tashkent,41.28194,69.18111
Chimbote,316966,PE,America/Lima,-9.07508,-78.59373
Chimoio,422046,MZ,Africa/Maputo,-19.11639,33.48333
Chingola,256560,ZM,Africa/Lusaka,-12.52897,27.88382
Chiniot,318165,PK,Asia/Karachi,31.72091,72.97836
Chinju,307242,KR,Asia/Seoul,35.19278,128.08472
Chipata,327059,ZM,Africa/Lusaka,-13.63333,32.65
Chisinau,635994,MD,Europe/Chisinau,47.00902,28.85938
Chita,349005,RU,Asia/Chita,52.03171,113.50087
Chitato,246880,AO,Africa/Luanda,-7.3,20.73333
Chitungwiza,371246,ZW,Africa/Harare,-18.01274,31.07555
Chizhou,615274,CN,Asia/Shanghai,30.66134,117.47783
Chon Buri,219164,TH,Asia/Bangkok,13.3622,100.98345
Chongjin,327000,KP,Asia/Pyongyang,41.79556,129.77583
Chongqing,7457599,CN,Asia/Shanghai,29.56026,106.55771
Chongzuo,384905,CN,Asia/Shanghai,22.38161,107.3683
Christchurch,412000,NZ,Pacific/Auckland,-43.53333,172.63333
Chula Vista,265757,US,America/Los_Angeles,32.64005,-117.0842
Chuncheon,286124,KR,Asia/Seoul,37.87472,127.73417
Chungju,209483,KR,Asia/Seoul,36.97666,127.9287
Chuxiong,555081,CN,Asia/Shanghai,25.03639,101.54556
Chuzhou,782671,CN,Asia/Shanghai,32.32194,118.29778
Chí Linh,220421,VN,Asia/Ho_Chi_Minh,21.06667,106.31667
Chānda,328351,IN,Asia/Kolkata,19.95076,79.29523
Chāndpur,203000,BD,Asia/Dhaka,23.22714,90.65433
Chāpra,202352,IN,Asia/Kolkata,25.78031,84.74709
Chōfu,242614,JP,Asia/Tokyo,35.65924,139.54837
Chợ Lớn,561000,VN,Asia/Ho_Chi_Minh,10.75,106.65
Ciampea,207212,ID,Asia/Jakarta,-6.55472,106.70083
Cibinong,363424,ID,Asia/Jakarta,-6.48167,106.85417
Cidade Ademar,249218,BR,America/Sao_Paulo,-23.67379,-46.65681
Cilacap,256996,ID,Asia/Jakarta,-7.72639,109.00944
Cilegon,450271,ID,Asia/Jakarta,-6.0144,106.0542
Cileungsir,288347,ID,Asia/Jakarta,-6.39472,106.95917
Cimahi,590782,ID,Asia/Jakarta,-6.87222,107.5425
Cincinnati,311097,US,America/New_York,39.12711,-84.51439
Ciputat,207858,ID,Asia/Jakarta,-6.2375,106.69556
Cirebon,341980,ID,Asia/Jakarta,-6.7063,108.557
Citeureup,214668,ID,Asia/Jakarta,-6.48556,106.88194
City of Westminster,247614,GB,Europe/London,51.4975,-0.1357
Ciudad Apodaca,467157,MX,America/Monterrey,25.78195,-100.18839
Ciudad Benito Juárez,308285,MX,America/Monterrey,25.64724,-100.09582
Ciudad Bolívar,412619,VE,America/Caracas,8.12366,-63.54694
Ciudad del Este,301815,PY,America/Asuncion,-25.5036,-54.65067
Ciudad General Escobedo,454967,MX,America/Monterrey,25.79698,-100.31791
Ciudad Guayana,978202,VE,America/Caracas,8.35122,-62.64102
Ciudad Juárez,1512450,MX,America/Ciudad_Juarez,31.72024,-106.46084
Ciudad Lineal,228171,ES,Europe/Madrid,40.44505,-3.65132
Ciudad López Mateos,489160,MX,America/Mexico_City,19.55793,-99.25675
Ciudad Nezahualcoyotl,1104585,MX,America/Mexico_City,19.40061,-99.01483
Ciudad Obregón,329404,MX,America/Hermosillo,27.48642,-109.94079
Ciudad Ojeda,240283,VE,America/Caracas,10.20161,-71.3148
Ciudad Victoria,332100,MX,America/Monterrey,23.74061,-99.14364
Cixi,1457510,CN,Asia/Shanghai,30.1764,121.2457
Cleveland,365379,US,America/New_York,41.4995,-81.69541
Cluj-Napoca,286598,RO,Europe/Bucharest,46.76667,23.6
Coacalco,277959,MX,America/Mexico_City,19.62923,-99.10689
Coatzacoalcos,235983,MX,America/Mexico_City,18.14905,-94.4447
Cobán,212047,GT,America/Guatemala,15.47025,-90.37455
Cochabamba,841276,BO,America/La_Paz,-17.38195,-66.15995
Coimbatore,2136916,IN,Asia/Kolkata,11.00555,76.96612
Colombo,246540,BR,America/Sao_Paulo,-25.29167,-49.22417
Colombo,648034,LK,Asia/Colombo,6.93548,79.84868
Colonia del Valle,250000,MX,America/Mexico_City,19.38611,-99.16204
Colorado Springs,456568,US,America/Denver,38.83388,-104.82136
Columbus,206922,US,America/New_York,32.46098,-84.98771
Columbus,913175,US,America/New_York,39.96118,-82.99879
Comilla,1030000,BD,Asia/Dhaka,23.46186,91.18503
Conakry,1928389,GN,Africa/Conakry,9.53795,-13.67729
Concepción,223574,CL,America/Santiago,-36.82699,-73.04977
Constantine,448028,DZ,Africa/Algiers,36.365,6.61472
Constanţa,317832,RO,Europe/Bucharest,44.18073,28.63432
Contagem,627123,BR,America/Sao_Paulo,-19.93167,-44.05361
Copenhagen,1153615,DK,Europe/Copenhagen,55.67594,12.56553
Coro,246657,VE,America/Caracas,11.40769,-69.67822
Corpus Christi,316239,US,America/Chicago,27.80058,-97.39638
Corrientes,346334,AR,America/Argentina/Cordoba,-27.46784,-58.8344
Cotabato,325079,PH,Asia/Manila,7.22361,124.24639
Cotia,253608,BR,America/Sao_Paulo,-23.60389,-46.91917
Cotonou,679012,BJ,Africa/Porto-Novo,6.36536,2.41833
Coventry,345324,GB,Europe/London,52.40656,-1.51217
Cox's Bāzār,253788,BD,Asia/Dhaka,21.43973,92.00955
Coyoacán,620416,MX,America/Mexico_City,19.3467,-99.16174
Craiova,234140,RO,Europe/Bucharest,44.31667,23.8
Croix-des-Bouquets,229127,HT,America/Port-au-Prince,18.57677,-72.22625
Cuauhtémoc,531831,MX,America/Mexico_City,19.44506,-99.14612
Cuautitlán Izcalli,484573,MX,America/Mexico_City,19.64388,-99.21598
Cuenca,636996,EC,America/Guayaquil,-2.8953,-78.9963
Cuernavaca,338650,MX,America/Mexico_City,18.9261,-99.23075
Cuiabá,618124,BR,America/Cuiaba,-15.59611,-56.09667
Culiacán,808416,MX,America/Mazatlan,24.80209,-107.39421
Cumaná,405626,VE,America/Caracas,10.4639,-64.17859
Curitiba,1948626,BR,America/Sao_Paulo,-25.42778,-49.27306
Cusco,428450,PE,America/Lima,-13.53188,-71.96701
Cuttack,610189,IN,Asia/Kolkata,20.46497,85.87927
Cuíto,355423,AO,Africa/Luanda,-12.38333,16.93333
Cypress,200839,US,America/Chicago,29.96911,-95.69717
Częstochowa,248125,PL,Europe/Warsaw,50.79646,19.12409
Cà Mau,226372,VN,Asia/Ho_Chi_Minh,9.17682,105.15242
Córdoba,2106734,AR,America/Argentina/Cordoba,-31.40648,-64.18853
Córdoba,325708,ES,Europe/Madrid,37.89155,-4.77275
Cúcuta,777106,CO,America/Bogota,7.90745,-72.5049
Cần Thơ,1507187,VN,Asia/Ho_Chi_Minh,10.03711,105.78825
Da Nang,1276000,VN,Asia/Ho_Chi_Minh,16.06778,108.22083
Dadu,201017,PK,Asia/Karachi,26.73033,67.7769
Daegu,2365523,KR,Asia/Seoul,35.87028,128.59111
Daejeon,1470336,KR,Asia/Seoul,36.34913,127.38493
Dakar,2646503,SN,Africa/Dakar,14.6937,-17.44406
Dali,235305,CN,Asia/Shanghai,25.58474,100.21229
Dalian,4913879,CN,Asia/Shanghai,38.91222,121.60222
Daliang,210411,CN,Asia/Shanghai,22.84067,113.2503
Dallas,1326087,US,America/Chicago,32.78306,-96.80667
Daloa,421871,CI,Africa/Abidjan,6.87735,-6.45022
Damanhur,318207,EG,Africa/Cairo,31.03408,30.46823
Damascus,1569394,SY,Asia/Damascus,33.5102,36.29128
Damietta,305920,EG,Africa/Cairo,31.41648,31.81332
Dammam,1252523,SA,Asia/Riyadh,26.43442,50.10326
Dandong,631973,CN,Asia/Shanghai,40.12917,124.39472
Daqing,1604027,CN,Asia/Shanghai,46.58333,125
Dar es Salaam,5383728,TZ,Africa/Dar_es_Salaam,-6.82349,39.26951
Darbhanga,296039,IN,Asia/Kolkata,26.15216,85.89707
Dasmariñas,441876,PH,Asia/Manila,14.32944,120.93667
Datong,1850000,CN,Asia/Shanghai,40.09361,113.29139
Davangere,435128,IN,Asia/Kolkata,14.46693,75.92694
Davao,1776949,PH,Asia/Manila,7.07306,125.61278
Daye,347406,CN,Asia/Shanghai,30.08333,114.95
Dayrah,400000,AE,Asia/Dubai,25.27143,55.30207
Dazhou,1589435,CN,Asia/Shanghai,31.2106,107.46308
Debrecen,202402,HU,Europe/Budapest,47.53167,21.62444
Dehiwala-Mount Lavinia,219827,LK,Asia/Colombo,6.84019,79.87116
Dehra Dūn,522081,IN,Asia/Kolkata,30.32443,78.03392
Deir ez-Zor,271800,SY,Asia/Damascus,35.33588,40.14084
Delhi,11034555,IN,Asia/Kolkata,28.65195,77.23149
Delmas,382920,HT,America/Port-au-Prince,18.54478,-72.30036
Dengzhou,285032,CN,Asia/Shanghai,32.68222,112.08194
Denizli,313238,TR,Europe/Istanbul,37.77417,29.0875
Denpasar,725314,ID,Asia/Makassar,-8.65,115.21667
Denver,729019,US,America/Denver,39.73915,-104.9847
Deoghar,203123,IN,Asia/Kolkata,24.48983,86.69902
Depok,2145400,ID,Asia/Jakarta,-6.4,106.81861
Dera Ghazi Khan,494464,PK,Asia/Karachi,30.04587,70.64029
Dera Ismail Khan,763195,PK,Asia/Karachi,31.83129,70.9017
Derby,270468,GB,Europe/London,52.92277,-1.47663
Des Moines,214133,US,America/Chicago,41.60054,-93.60911
Dessie,270400,ET,Africa/Addis_Ababa,11.13333,39.63333
Detroit,645705,US,America/Detroit,42.33143,-83.04575
Dewas,289550,IN,Asia/Kolkata,22.96585,76.05526
Deyang,735070,CN,Asia/Shanghai,31.13019,104.38198
Dezhou,679535,CN,Asia/Shanghai,37.44661,116.36706
Dhaka,10356500,BD,Asia/Dhaka,23.7104,90.40744
Dhanbad,1196214,IN,Asia/Kolkata,23.79759,86.42992
Dhangaḍhi̇̄,204788,NP,Asia/Kathmandu,28.70159,80.58991
Dhule,375559,IN,Asia/Kolkata,20.9013,74.77737
Diadema,393237,BR,America/Sao_Paulo,-23.68611,-46.62278
Diepsloot,350000,ZA,Africa/Johannesburg,-25.93312,28.01213
Diez de Octubre,227293,CU,America/Havana,23.0881,-82.3597
Dihok,340900,IQ,Asia/Baghdad,36.86608,42.9879
Dinajpur,206234,BD,Asia/Dhaka,25.62745,88.63779
Dindigul,292512,IN,Asia/Kolkata,10.36896,77.98036
Dingxi,420614,CN,Asia/Shanghai,35.57088,104.62303
Dire Dawa,343000,ET,Africa/Addis_Ababa,9.59306,41.86611
Divinópolis,231091,BR,America/Sao_Paulo,-20.14355,-44.89065
Diyarbakır,1791373,TR,Europe/Istanbul,37.91363,40.21721
Djelfa,265833,DZ,Africa/Algiers,34.67279,3.263
Djibouti,626512,DJ,Africa/Djibouti,11.58901,43.14503
Dnipro,968502,UA,Europe/Kyiv,48.46664,35.04066
Dodoma,765179,TZ,Africa/Dar_es_Salaam,-6.17221,35.73947
Doha,344939,QA,Asia/Qatar,25.28545,51.53096
Dombivali,1247327,IN,Asia/Kolkata,19.21667,73.08333
Donetsk,901645,UA,Europe/Kyiv,48.023,37.80224
Dongguan,9644871,CN,Asia/Shanghai,23.01797,113.74866
Donghai,264709,CN,Asia/Shanghai,22.94593,115.64204
Dongtai,262873,CN,Asia/Shanghai,32.85231,120.30947
Dongying,998968,CN,Asia/Shanghai,37.46271,118.49165
Dortmund,588462,DE,Europe/Berlin,51.51494,7.466
Dosquebradas,206693,CO,America/Bogota,4.83916,-75.66727
Douala,1338082,CM,Africa/Douala,4.04827,9.70428
Dresden,556227,DE,Europe/Berlin,51.05089,13.73832
Dubai,3790000,AE,Asia/Dubai,25.07725,55.30927
Dublin,1024027,IE,Europe/Dublin,53.33306,-6.24889
Duisburg,504358,DE,Europe/Berlin,51.43247,6.76516
Dumai,331832,ID,Asia/Jakarta,1.66711,101.44316
Duque de Caxias,818329,BR,America/Sao_Paulo,-22.78556,-43.31167
Durban,3338026,ZA,Africa/Johannesburg,-29.8579,31.0292
Durg,268806,IN,Asia/Kolkata,21.19147,81.27619
Durgapur,518872,IN,Asia/Kolkata,23.51583,87.30801
Durham,257636,US,America/New_York,35.99403,-78.89862
Dushanbe,679400,TJ,Asia/Dushanbe,38.53575,68.77905
Dzerzhinsk,233126,RU,Europe/Moscow,56.24422,43.45543
Düsseldorf,620523,DE,Europe/Berlin,51.22172,6.77616
Dĩ An,463023,VN,Asia/Ho_Chi_Minh,10.90682,106.7694
E'zhou,668727,CN,Asia/Shanghai,30.39607,114.88655
East Jerusalem,428304,PS,Asia/Hebron,31.78336,35.23388
East London,478676,ZA,Africa/Johannesburg,-33.01529,27.91162
Ebute Ikorodu,535619,NG,Africa/Lagos,6.60086,3.48818
Ecatepec de Morelos,1645352,MX,America/Mexico_City,19.60492,-99.06064
Edinburgh,514990,GB,Europe/London,55.95206,-3.19648
Edmonton,1010899,CA,America/Edmonton,53.55014,-113.46871
Edogawe,697932,JP,Asia/Tokyo,35.69225,139.87308
Efon-Alaaye,279319,NG,Africa/Lagos,7.65649,4.92235
Eimsbüttel,269118,DE,Europe/Berlin,53.57416,9.95679
Eindhoven,209620,NL,Europe/Amsterdam,51.44083,5.47778
Eixample,266477,ES,Europe/Madrid,41.38896,2.16179
El Daein,264734,SD,Africa/Khartoum,11.46186,26.12583
El Fasher,252609,SD,Africa/Khartoum,13.62793,25.34936
El Jadida,212863,MA,Africa/Casablanca,33.25682,-8.50882
El Obeid,393311,SD,Africa/Khartoum,13.18421,30.21669
El Paso,678815,US,America/Denver,31.75872,-106.48693
El Tigre,222450,VE,America/Caracas,8.88902,-64.2527
Elazığ,443363,TR,Europe/Istanbul,38.67431,39.22321
Elche,234765,ES,Europe/Madrid,38.26218,-0.70107
Eldoret,475716,KE,Africa/Nairobi,0.52036,35.26993
Eloy Alfaro,315724,EC,America/Guayaquil,-2.16919,-79.83987
Eluru,218020,IN,Asia/Kolkata,16.71311,81.10437
Emalahleni,373403,ZA,Africa/Johannesburg,-25.87133,29.23323
Embu das Artes,250691,BR,America/Sao_Paulo,-23.64889,-46.85222
Ensenada,443807,MX,America/Tijuana,31.87149,-116.60071
Enshi,279185,CN,Asia/Shanghai,30.3,109.48333
Enugu,950000,NG,Africa/Lagos,6.44132,7.49883
Epworth,206368,ZW,Africa/Harare,-17.89,31.1475
Erbil,1612700,IQ,Asia/Baghdad,36.19117,44.00943
Erfurt,213692,DE,Europe/Berlin,50.9787,11.03283
Erode,521891,IN,Asia/Kolkata,11.3428,77.72741
Erzurum,767848,TR,Europe/Istanbul,39.90861,41.27694
Esenler,520235,TR,Europe/Istanbul,41.0435,28.87619
Esenyurt,211330,TR,Europe/Istanbul,41.02697,28.67732
Eskişehir,789023,TR,Europe/Istanbul,39.77667,30.52056
Eslamshahr,450000,IR,Asia/Tehran,35.55222,51.23504
Esmeraldas,218727,EC,America/Guayaquil,0.9592,-79.65397
Espoo,256760,FI,Europe/Helsinki,60.2052,24.6522
Essen,593085,DE,Europe/Berlin,51.45657,7.01228
Etobicoke,365000,CA,America/Toronto,43.64415,-79.56985
Etāwah,257448,IN,Asia/Kolkata,26.77615,79.02133
Evaton,725468,ZA,Africa/Johannesburg,-26.53333,27.85
Faisalabad,3800193,PK,Asia/Karachi,31.41554,73.08969
Fangchenggang,276315,CN,Asia/Shanghai,21.76945,108.35661
Fanling,263200,HK,Asia/Hong_Kong,22.49487,114.13949
Faridabad,1414050,IN,Asia/Kolkata,28.41124,77.31316
Farrukhābād,241152,IN,Asia/Kolkata,27.39134,79.5793
Favoriten,201882,AT,Europe/Vienna,48.16116,16.38233
Fayetteville,201963,US,America/New_York,35.05266,-78.87836
Feira de Santana,619609,BR,America/Bahia,-12.26667,-38.96667
Fendou,226298,CN,Asia/Shanghai,46.64142,124.86283
Fenghuang,370000,CN,Asia/Shanghai,27.93557,109.59961
Fengshan,356463,TW,Asia/Taipei,22.62659,120.36126
Fergana,299200,UZ,Asia/Tashkent,40.38421,71.78432
Fes,1191905,MA,Africa/Casablanca,34.03313,-5.00028
Fianarantsoa,203105,MG,Indian/Antananarivo,-21.45267,47.08569
Florence,367150,IT,Europe/Rome,43.77925,11.24626
Florianópolis,508826,BR,America/Sao_Paulo,-27.59667,-48.54917
Floridablanca,267591,CO,America/Bogota,7.06222,-73.08644
Fontana,212704,US,America/Los_Angeles,34.09223,-117.43505
Formosa,222226,AR,America/Argentina/Cordoba,-26.18489,-58.17313
Fort Wayne,260326,US,America/Indiana/Indianapolis,41.1306,-85.12886
Fort Worth,1008106,US,America/Chicago,32.72541,-97.32085
Fortaleza,2400000,BR,America/Fortaleza,-3.71722,-38.54306
Foshan,9042509,CN,Asia/Shanghai,23.02677,113.13148
Foz do Iguaçu,258248,BR,America/Sao_Paulo,-25.54778,-54.58806
Franca,358539,BR,America/Sao_Paulo,-20.53861,-47.40083
Frankfurt am Main,650000,DE,Europe/Berlin,50.11552,8.68417
Freetown,802639,SL,Africa/Freetown,8.48714,-13.2356
Freiburg,215966,DE,Europe/Berlin,47.9959,7.85222
Fremont,232206,US,America/Los_Angeles,37.54827,-121.98857
Fresno,542107,US,America/Los_Angeles,36.74773,-119.77237
Fuchū,262790,JP,Asia/Tokyo,35.67452,139.48216
Fuencarral,238765,ES,Europe/Madrid,40.5,-3.68333
Fuencarral-El Pardo,220085,ES,Europe/Madrid,40.4984,-3.7314
Fuji,245392,JP,Asia/Tokyo,35.16667,138.68333
Fujisawa,439728,JP,Asia/Tokyo,35.34926,139.47666
Fukui-shi,262328,JP,Asia/Tokyo,36.06443,136.22257
Fukuoka,1612392,JP,Asia/Tokyo,33.6,130.41667
Fukushima,294237,JP,Asia/Tokyo,37.75,140.46667
Fukuyama,468812,JP,Asia/Tokyo,34.48333,133.36667
Fuling,268658,CN,Asia/Shanghai,29.70997,107.39391
Fushun,1400646,CN,Asia/Shanghai,41.88669,123.94363
Fuxin,689050,CN,Asia/Shanghai,42.01556,121.65889
Fuyang,1768947,CN,Asia/Shanghai,32.9,115.81667
Fuzhou,1089888,CN,Asia/Shanghai,27.95999,116.33333
Fuzhou,3740000,CN,Asia/Shanghai,26.06139,119.30611
Fīrozābād,306409,IN,Asia/Kolkata,27.15092,78.39781
Gaborone,246325,BW,Africa/Gaborone,-24.65451,25.90859
Gagnoa,277044,CI,Africa/Abidjan,6.13193,-5.9506
Gajuwaka,258944,IN,Asia/Kolkata,17.7,83.21667
Galaţi,217851,RO,Europe/Bucharest,45.43687,28.05028
Gandajika,208051,CD,Africa/Lubumbashi,-6.74504,23.95328
Gandhinagar,292797,IN,Asia/Kolkata,23.21667,72.68333
Ganja,335600,AZ,Asia/Baku,40.68278,46.36056
Ganzhou,1977253,CN,Asia/Shanghai,25.84664,114.9326
Gaomi,391986,CN,Asia/Shanghai,36.38333,119.75278
Gaoping,204368,CN,Asia/Shanghai,30.77576,106.10294
Gaozhou,292164,CN,Asia/Shanghai,21.91965,110.85678
Garland,236897,US,America/Chicago,32.91262,-96.63888
Gasteiz / Vitoria,249176,ES,Europe/Madrid,42.84998,-2.67268
Gatineau,242124,CA,America/Toronto,45.47723,-75.70164
Gaya,474093,IN,Asia/Kolkata,24.79686,85.00385
Gaza,410000,PS,Asia/Gaza,31.50161,34.46672
Gaziantep,2130432,TR,Europe/Istanbul,37.05944,37.3825
Gazipur,2674697,BD,Asia/Dhaka,23.99844,90.42234
Gboko,365000,NG,Africa/Lagos,7.32275,9.00108
Gdańsk,461865,PL,Europe/Warsaw,54.35227,18.64912
Gdynia,257000,PL,Europe/Warsaw,54.51889,18.53188
Gebze,281436,TR,Europe/Istanbul,40.80276,29.43068
Geelong,268984,AU,Australia/Melbourne,-38.14711,144.36069
Geita,318006,TZ,Africa/Dar_es_Salaam,-2.8725,32.2325
Gelsenkirchen,270028,DE,Europe/Berlin,51.50508,7.09654
General Santos,697315,PH,Asia/Manila,6.11278,125.17167
Genoa,580097,IT,Europe/Rome,44.40478,8.94439
Gent,265086,BE,Europe/Brussels,51.05,3.71667
Genève,201741,CH,Europe/Zurich,46.20222,6.14569
Georgetown,235017,GY,America/Guyana,6.80448,-58.15527
Ghulja,269158,CN,Asia/Urumqi,43.91515,81.32151
Ghāziābād,1199191,IN,Asia/Kolkata,28.66535,77.43915
Gia Lâm,309353,VN,Asia/Bangkok,21.05352,106.00712
Gifu,402557,JP,Asia/Tokyo,35.42291,136.76039
Gijón,271780,ES,Europe/Madrid,43.53573,-5.66152
Gilbert,247542,US,America/Phoenix,33.35283,-111.78903
Gilgit,216760,PK,Asia/Karachi,35.91869,74.31245
Giza,4367343,EG,Africa/Cairo,30.00944,31.20861
Glasgow,626410,GB,Europe/London,55.86515,-4.25763
Glendale,240126,US,America/Phoenix,33.53865,-112.18599
Glendale,201020,US,America/Los_Angeles,34.14251,-118.25508
Godomè,253262,BJ,Africa/Porto-Novo,6.38948,2.34581
Goiânia,1536097,BR,America/Sao_Paulo,-16.67861,-49.25389
Gold Coast,640778,AU,Australia/Brisbane,-28.00029,153.43088
Golestān,240000,IR,Asia/Tehran,35.5183,51.1819
Goma,432587,CD,Africa/Lubumbashi,-1.67409,29.22845
Gombe,560000,NG,Africa/Lagos,10.28969,11.16729
Gonder,466000,ET,Africa/Addis_Ababa,12.6,37.46667
Gongheyong,204881,CN,Asia/Shanghai,22.75923,113.79452
Gorakhpur,1324570,IN,Asia/Kolkata,29.44768,75.67206
Gorakhpur,674246,IN,Asia/Kolkata,26.76628,83.36889
Gorgān,244937,IR,Asia/Tehran,36.8427,54.44391
Gosāba,222764,IN,Asia/Kolkata,22.16547,88.8007
Governador Valadares,250878,BR,America/Sao_Paulo,-18.85111,-41.94944
Goyang-si,1074784,KR,Asia/Seoul,37.65639,126.835
Grajaú,384873,BR,America/Sao_Paulo,-23.76979,-46.67112
Granada,233532,ES,Europe/Madrid,37.18817,-3.60667
Gravataí,265074,BR,America/Sao_Paulo,-29.94218,-50.99278
Graz,303270,AT,Europe/Vienna,47.06667,15.45
Greater Noida,293908,IN,Asia/Kolkata,28.49615,77.53601
Greensboro,285342,US,America/New_York,36.07264,-79.79198
Groningen,238147,NL,Europe/Amsterdam,53.21917,6.56667
Grozny,297137,RU,Europe/Moscow,43.31195,45.68895
Guadalajara,1385629,MX,America/Mexico_City,20.67738,-103.34749
Guadalupe,673616,MX,America/Monterrey,25.67678,-100.25646
Guang'an,858159,CN,Asia/Shanghai,30.47413,106.63696
Guangyuan,516424,CN,Asia/Shanghai,32.44201,105.823
Guangzhou,16096724,CN,Asia/Shanghai,23.11667,113.25
Guankou,1380000,CN,Asia/Shanghai,28.15861,113.62709
Guantánamo,272801,CU,America/Havana,20.14444,-75.20917
Guarenas,248588,VE,America/Caracas,10.47027,-66.61934
Guarujá,322750,BR,America/Sao_Paulo,-23.99306,-46.25639
Guarulhos,1169577,BR,America/Sao_Paulo,-23.46278,-46.53333
Guatemala City,994938,GT,America/Guatemala,14.64072,-90.51327
Guatire,227666,VE,America/Caracas,10.474,-66.54241
Guayaquil,2723665,EC,America/Guayaquil,-2.19616,-79.88621
Guigang,1086327,CN,Asia/Shanghai,23.11603,109.59472
Guilin,1572300,CN,Asia/Shanghai,25.28022,110.29639
Guiyang,3037159,CN,Asia/Shanghai,26.58333,106.71667
Gujangbagh,408894,CN,Asia/Urumqi,37.10927,79.93433
Gujranwala,2511118,PK,Asia/Karachi,32.15567,74.18705
Gujrat,574240,PK,Asia/Karachi,32.5742,74.07542
Guli,536000,CN,Asia/Shanghai,28.88162,120.03308
Gumi,404691,KR,Asia/Seoul,36.1136,128.336
Gunan,208010,CN,Asia/Shanghai,29.0231,106.648
Gundupālaiyam,300104,IN,Asia/Kolkata,11.94096,79.80294
Gunpo,286485,KR,Asia/Seoul,37.3675,126.94694
Gunsan,264656,KR,Asia/Seoul,35.97861,126.71139
Guntur,670073,IN,Asia/Kolkata,16.29974,80.45729
Gurugram,886519,IN,Asia/Kolkata,28.4601,77.02635
Gusau,226857,NG,Africa/Lagos,12.17024,6.66412
Gustavo Adolfo Madero,1185772,MX,America/Mexico_City,19.49392,-99.11075
Guwahati,962334,IN,Asia/Kolkata,26.1844,91.7458
Guyuan,411854,CN,Asia/Shanghai,36.00667,106.28083
Guédiawaye,329659,SN,Africa/Dakar,14.77446,-17.40212
Gwalior,1054420,IN,Asia/Kolkata,26.22983,78.17337
Gwangju,1411357,KR,Asia/Seoul,35.15472,126.91556
Gwangmyeong,357545,KR,Asia/Seoul,37.47722,126.86639
Gyeongju,245365,KR,Asia/Seoul,35.84278,129.21167
Gyeongsan-si,266951,KR,Asia/Seoul,35.82333,128.73778
Gyānpur,200000,IN,Asia/Kolkata,25.33268,82.46637
Gómez Palacio,257352,MX,America/Monterrey,25.56871,-103.4996
Göteborg,608462,SE,Europe/Stockholm,57.70716,11.96679
Gāndhīdhām,247992,IN,Asia/Kolkata,23.08333,70.13333
Ha'il,605930,SA,Asia/Riyadh,27.52188,41.69073
Hachinohe,239046,JP,Asia/Tokyo,40.5,141.5
Hachiōji,579355,JP,Asia/Tokyo,35.65583,139.32389
Haeju,222396,KP,Asia/Pyongyang,38.04056,125.71472
Hafar Al-Batin,271642,SA,Asia/Riyadh,28.43279,45.97077
Hafizabad,318621,PK,Asia/Karachi,32.07095,73.68802
Haifa,285316,IL,Asia/Jerusalem,32.81303,34.99928
Haikou,2873358,CN,Asia/Shanghai,20.03421,110.34651
Hailar,211066,CN,Asia/Shanghai,49.2,119.7
Haiphong,2625200,VN,Asia/Bangkok,20.86481,106.68345
Hakodate,275730,JP,Asia/Tokyo,41.77583,140.73667
Halifax,471559,CA,America/Halifax,44.64269,-63.57688
Halle (Saale),237865,DE,Europe/Berlin,51.48158,11.97947
Hamadān,528256,IR,Asia/Tehran,34.79922,48.51456
Hamamatsu,791707,JP,Asia/Tokyo,34.7,137.73333
Hamburg,1845229,DE,Europe/Berlin,53.55073,9.99302
Hamburg-Mitte,301231,DE,Europe/Berlin,53.55,10.01667
Hamburg-Nord,315514,DE,Europe/Berlin,53.58935,9.984
Hamhŭng,559056,KP,Asia/Pyongyang,39.91833,127.53639
Hami,246373,CN,Asia/Urumqi,42.83393,93.50601
Hamilton,569353,CA,America/Toronto,43.25011,-79.84963
Hanam,254415,KR,Asia/Seoul,37.54,127.20556
Handan,1358318,CN,Asia/Shanghai,36.60999,114.48764
Hangu,208369,CN,Asia/Shanghai,39.24889,117.78917
Hangzhou,9236032,CN,Asia/Shanghai,30.29365,120.16142
Hannover,515140,DE,Europe/Berlin,52.37052,9.73322
Hanoi,8053663,VN,Asia/Bangkok,21.0245,105.84117
Hanzhong,1006557,CN,Asia/Shanghai,33.07507,107.02214
Harare,1542813,ZW,Africa/Harare,-17.82772,31.05337
Harbin,5242897,CN,Asia/Shanghai,45.75,126.65
Hargeysa,477876,SO,Africa/Mogadishu,9.56,44.065
Havana,2163824,CU,America/Havana,23.13302,-82.38304
Hebi,634721,CN,Asia/Shanghai,35.73231,114.28616
Hechi,330131,CN,Asia/Shanghai,24.69285,108.08376
Hechuan,377213,CN,Asia/Shanghai,29.99228,106.26461
Hefei,5050000,CN,Asia/Shanghai,31.86389,117.28083
Hegang,743307,CN,Asia/Shanghai,47.34727,130.29033
Heihe,223832,CN,Asia/Shanghai,50.24413,127.49016
Helsinki,658864,FI,Europe/Helsinki,60.16952,24.93545
Henderson,285667,US,America/Los_Angeles,36.0397,-114.98194
Hengshui,522147,CN,Asia/Shanghai,37.73908,115.68348
Hengyang,1075516,CN,Asia/Shanghai,26.88946,112.61888
Hermosillo,812229,MX,America/Hermosillo,29.08874,-110.96677
Heroica Matamoros,449815,MX,America/Matamoros,25.87972,-97.50417
Herāt,574300,AF,Asia/Kabul,34.34817,62.19967
Heshan,1249807,CN,Asia/Shanghai,28.56938,112.34733
Heyuan,463907,CN,Asia/Shanghai,23.73333,114.68333
Heze,1346717,CN,Asia/Shanghai,35.23929,115.47358
Hezhou,1005490,CN,Asia/Shanghai,24.40357,111.56675
Hialeah,237069,US,America/New_York,25.8576,-80.27811
Higashiosaka,493940,JP,Asia/Tokyo,34.66667,135.58333
Himeji,530495,JP,Asia/Tokyo,34.81667,134.7
Hirakata,406331,JP,Asia/Tokyo,34.81352,135.64914
Hiratsuka,258422,JP,Asia/Tokyo,35.32785,139.33735
Hiroshima,1200754,JP,Asia/Tokyo,34.4,132.45
Hisar,307024,IN,Asia/Kolkata,29.15394,75.72294
Ho Chi Minh City,14002598,VN,Asia/Ho_Chi_Minh,10.82302,106.62965
Hobart,252639,AU,Australia/Hobart,-42.87936,147.32941
Hohhot,2350000,CN,Asia/Shanghai,40.81056,111.65222
Holguín,319102,CU,America/Havana,20.88722,-76.26306
Homs,775404,SY,Asia/Damascus,34.72405,36.72559
Homyel',501102,BY,Europe/Minsk,52.4345,30.9754
Honchō,644668,JP,Asia/Tokyo,35.70129,139.98648
Hong Kong,7396076,HK,Asia/Hong_Kong,22.27832,114.17469
Hong Kong Island,1195529,HK,Asia/Hong_Kong,22.26302,114.18419
Honolulu,350964,US,Pacific/Honolulu,21.30694,-157.85833
Horlivka,239828,UA,Europe/Kyiv,48.33576,38.05325
Hortolândia,234259,BR,America/Sao_Paulo,-22.85833,-47.22
Hosapete,206167,IN,Asia/Kolkata,15.26954,76.3871
Hosūr,229528,IN,Asia/Kolkata,12.73647,77.83264
Hougang New Town,227560,SG,Asia/Singapore,1.35667,103.89083
Houston,2314157,US,America/Chicago,29.76328,-95.36327
Howrah,1027672,IN,Asia/Kolkata,22.57688,88.31857
Hrodna,361115,BY,Europe/Minsk,53.6758,23.82887
Hsinchu,453536,TW,Asia/Taipei,24.80361,120.96861
Huai'an,2494013,CN,Asia/Shanghai,33.58861,119.01917
Huaibei,1113321,CN,Asia/Shanghai,33.97444,116.79167
Huaihua,552622,CN,Asia/Shanghai,27.56337,110.00404
Huainan,1666826,CN,Asia/Shanghai,32.62639,116.99694
Huambo,595304,AO,Africa/Luanda,-12.77611,15.73917
Huancayo,456250,PE,America/Lima,-12.06866,-75.21027
Huanggang,225956,CN,Asia/Shanghai,23.67704,116.99961
Huanggang,366769,CN,Asia/Shanghai,30.45143,114.87035
Huangshan,460786,CN,Asia/Shanghai,29.71139,118.3125
Huangshi,688090,CN,Asia/Shanghai,30.24706,115.04814
Huayin,242488,CN,Asia/Shanghai,34.56528,110.06639
Hubballi,943788,IN,Asia/Kolkata,15.34776,75.13378
Huizhou,2900113,CN,Asia/Shanghai,23.11147,114.41523
Hulan Ergi,265344,CN,Asia/Shanghai,47.20417,123.63333
Hulunbuir,349400,CN,Asia/Shanghai,49.21141,119.75582
Huntington Beach,201899,US,America/Los_Angeles,33.6603,-117.99923
Huntsville,215006,US,America/Chicago,34.7304,-86.58594
Huocheng,360000,CN,Asia/Urumqi,44.05305,80.87173
Hurghada,207132,EG,Africa/Cairo,27.25738,33.81291
Huzhou,1015937,CN,Asia/Shanghai,30.8703,120.0933
Huế,1380000,VN,Asia/Bangkok,16.4619,107.59546
Hwaseong-si,640890,KR,Asia/Seoul,37.20682,126.8169
Hyderabad,6993262,IN,Asia/Kolkata,17.38405,78.45636
Hyderabad,1921275,PK,Asia/Karachi,25.39689,68.37718
Hāpur,242920,IN,Asia/Kolkata,28.72985,77.78068
Hāthazāri,498179,BD,Asia/Dhaka,22.50515,91.81339
Hŭngnam,346082,KP,Asia/Pyongyang,39.84198,127.63206
Hạ Long,270054,VN,Asia/Bangkok,20.95045,107.07336
Hải Dương,241373,VN,Asia/Bangkok,20.94099,106.33302
Iaşi,378954,RO,Europe/Bucharest,47.16667,27.6
Ibadan,3649000,NG,Africa/Lagos,7.37756,3.90591
Ibagué,529635,CO,America/Bogota,4.43573,-75.20289
Ibaraki,287730,JP,Asia/Tokyo,34.81641,135.56828
Ibarra,221149,EC,America/Guayaquil,0.34881,-78.12462
Ibb,771514,YE,Asia/Aden,13.96667,44.18333
Ica,282407,PE,America/Lima,-14.07538,-75.73422
Ichalkaranji,287353,IN,Asia/Kolkata,16.69117,74.46054
Ichihara,283531,JP,Asia/Tokyo,35.51667,140.08333
Ichikawa,496676,JP,Asia/Tokyo,35.73413,139.9065
Ichinomiya,380073,JP,Asia/Tokyo,35.3,136.8
Ifakara,205843,TZ,Africa/Dar_es_Salaam,-8.13333,36.68333
Ijebu Ode,360000,NG,Africa/Lagos,6.81944,3.91731
Ikare,465000,NG,Africa/Lagos,7.52591,5.75342
Ikeja,313196,NG,Africa/Lagos,6.59651,3.34205
Ikire,222160,NG,Africa/Lagos,7.36983,4.1863
Ikot Ekpene,254806,NG,Africa/Lagos,5.18194,7.71481
Iksan,307000,KR,Asia/Seoul,35.94389,126.95444
Ile-Ife,560000,NG,Africa/Lagos,7.4824,4.56032
Ilesa,325000,NG,Africa/Lagos,7.62789,4.74161
Iligan,342618,PH,Asia/Manila,8.2289,124.24344
Iligan City,312323,PH,Asia/Manila,8.25,124.4
Iloilo,457626,PH,Asia/Manila,10.69694,122.56444
Ilorin,1080000,NG,Africa/Lagos,8.49664,4.54214
Imperatriz,218106,BR,America/Fortaleza,-5.52639,-47.49167
Imphal,277196,IN,Asia/Kolkata,24.80805,93.9442
Imus,216099,PH,Asia/Manila,14.42972,120.93667
Incheon,3016250,KR,Asia/Seoul,37.45646,126.70515
Indaiatuba,256223,BR,America/Sao_Paulo,-23.08842,-47.2119
Indianapolis,887642,US,America/Indiana/Indianapolis,39.76838,-86.15804
Indore,1994397,IN,Asia/Kolkata,22.71792,75.8333
Insein,247675,MM,Asia/Yangon,16.88874,96.10257
Ipatinga,228746,BR,America/Sao_Paulo,-19.46833,-42.53667
Ipoh,759952,MY,Asia/Kuala_Lumpur,4.5841,101.0829
Iquitos,377609,PE,America/Lima,-3.74814,-73.2529
Irapuato,380941,MX,America/Mexico_City,20.67675,-101.35628
Irbid,569068,JO,Asia/Amman,32.55556,35.85
Iringa,202490,TZ,Africa/Dar_es_Salaam,-7.76667,35.7
Irkutsk,623869,RU,Asia/Irkutsk,52.29795,104.29585
Ironville,288649,US,America/New_York,38.45647,-82.69238
Irvine,256927,US,America/Los_Angeles,33.66946,-117.82311
Irving,236607,US,America/Chicago,32.81402,-96.94889
Isesaki,211850,JP,Asia/Tokyo,36.31667,139.2
Iseyin,365300,NG,Africa/Lagos,7.97022,3.59626
Isfahan,1547164,IR,Asia/Tehran,32.65246,51.67462
Isfara,274000,TJ,Asia/Dushanbe,40.12649,70.62526
Isiro,255409,CD,Africa/Lubumbashi,2.77391,27.61603
Iskandar Puteri,575977,MY,Asia/Kuala_Lumpur,1.39324,103.62322
Islamabad,601600,PK,Asia/Karachi,33.72148,73.04329
Islington,319143,GB,Europe/London,51.53622,-0.10304
Ismailia,429465,EG,Africa/Cairo,30.60427,32.27225
Istanbul,15701602,TR,Europe/Istanbul,41.01384,28.94966
Istaravshan,273500,TJ,Asia/Dushanbe,39.9142,69.00328
Itabashi,584483,JP,Asia/Tokyo,35.74893,139.71497
Itaboraí,240040,BR,America/Sao_Paulo,-22.74444,-42.85944
Itabuna,205660,BR,America/Bahia,-14.78556,-39.28028
Itagüí,281853,CO,America/Bogota,6.18461,-75.59913
Itaim Paulista,205295,BR,America/Sao_Paulo,-23.50308,-46.38566
Itapevi,240961,BR,America/Sao_Paulo,-23.54889,-46.93417
Itaquaquecetuba,369275,BR,America/Sao_Paulo,-23.48611,-46.34833
Itaquera,210960,BR,America/Sao_Paulo,-23.53194,-46.44417
Ivano-Frankivsk,238196,UA,Europe/Kyiv,48.92312,24.71248
Ivanovo,406113,RU,Europe/Moscow,56.99719,40.97139
Iwaki,357309,JP,Asia/Tokyo,37.05,140.88333
Iwo,250443,NG,Africa/Lagos,7.63527,4.18156
Ixtapaluca,322271,MX,America/Mexico_City,19.31556,-98.88284
Izhevsk,648213,RU,Europe/Samara,56.84976,53.20448
Iztacalco,384326,MX,America/Mexico_City,19.39528,-99.09778
Iztapalapa,1815786,MX,America/Mexico_City,19.35529,-99.06224
İskenderun,251682,TR,Europe/Istanbul,36.58718,36.17347
İzmir,2500603,TR,Europe/Istanbul,38.41273,27.13838
Jabalpur,1081677,IN,Asia/Kolkata,23.16697,79.95006
Jabaquara,214958,BR,America/Sao_Paulo,-23.65055,-46.64591
Jaboatão,702621,BR,America/Recife,-8.18028,-35.00139
Jaboatão dos Guararapes,644037,BR,America/Recife,-8.11278,-35.01472
Jacareí,213110,BR,America/Sao_Paulo,-23.30528,-45.96583
Jacksonville,1009833,US,America/New_York,30.33218,-81.65565
Jacobabad,219315,PK,Asia/Karachi,28.28187,68.43761
Jaipur,3046163,IN,Asia/Kolkata,26.91962,75.78781
Jakarta,8540121,ID,Asia/Jakarta,-6.21462,106.84513
Jalandhar,868929,IN,Asia/Kolkata,31.32556,75.57917
Jalgaon,460228,IN,Asia/Kolkata,21.00292,75.56602
Jalālābād,271900,AF,Asia/Kabul,34.42647,70.45153
Jamaica,216866,US,America/New_York,40.69149,-73.80569
Jambi City,606200,ID,Asia/Jakarta,-1.6,103.61667
Jammu,576198,IN,Asia/Kolkata,32.73528,74.86167
Jamnagar,600943,IN,Asia/Kolkata,22.47292,70.06673
Jamshedpur,1339438,IN,Asia/Kolkata,22.80278,86.18545
Jaraguá,211610,BR,America/Sao_Paulo,-23.44077,-46.73774
Jardim Angela,311432,BR,America/Sao_Paulo,-23.71636,-46.76872
Jardim Sao Luis,259377,BR,America/Sao_Paulo,-23.68073,-46.7394
Jayapura,404004,ID,Asia/Jayapura,-2.53371,140.71813
Jebel Ali,210000,AE,Asia/Dubai,25.00255,55.10811
Jeddah,4697000,SA,Asia/Riyadh,21.49012,39.18624
Jeju City,488844,KR,Asia/Seoul,33.50972,126.52194
Jember,298585,ID,Asia/Jakarta,-8.17211,113.69953
Jeonju,638019,KR,Asia/Seoul,35.82194,127.14889
Jepara,1257912,ID,Asia/Jakarta,-6.5924,110.671
Jerez de la Frontera,212879,ES,Europe/Madrid,36.68645,-6.13606
Jersey City,264290,US,America/New_York,40.72816,-74.07764
Jerusalem,971800,IL,Asia/Jerusalem,31.76904,35.21633
Jessore,243987,BD,Asia/Dhaka,23.16971,89.21371
Jhang Sadr,341210,PK,Asia/Karachi,31.26981,72.31687
Jhānsi,412927,IN,Asia/Kolkata,25.45887,78.57994
Ji'an,538699,CN,Asia/Shanghai,27.11716,114.97927
Jiamusi,549549,CN,Asia/Shanghai,46.79711,130.31118
Jiangmen,1795459,CN,Asia/Shanghai,22.58333,113.08333
Jiangyin,1779515,CN,Asia/Shanghai,31.91102,120.26302
Jianshui,490000,CN,Asia/Shanghai,24.2774,101.224
Jiaojiang,470804,CN,Asia/Shanghai,28.69844,121.47331
Jiaozhou,619266,CN,Asia/Shanghai,36.28389,120.00333
Jiaozuo,865413,CN,Asia/Shanghai,35.23925,113.23914
Jiaxing,1180000,CN,Asia/Shanghai,30.7522,120.75
Jiayuguan,231853,CN,Asia/Shanghai,39.81121,98.28618
Jieyang,1899394,CN,Asia/Shanghai,23.5418,116.36581
Jijiga,483000,ET,Africa/Addis_Ababa,9.35,42.8
Jilin,1895865,CN,Asia/Shanghai,43.84652,126.5608
Jimeta,248148,NG,Africa/Lagos,9.27949,12.45819
Jimma,250900,ET,Africa/Addis_Ababa,7.67344,36.83441
Jinan,4335989,CN,Asia/Shanghai,36.66833,116.99722
Jinchang,228561,CN,Asia/Shanghai,38.50062,102.19379
Jincheng,476945,CN,Asia/Shanghai,35.50222,112.83278
Jingdezhen,473561,CN,Asia/Shanghai,29.2947,117.20789
Jinghong,205523,CN,Asia/Shanghai,22.00265,100.7697
Jingling,224871,CN,Asia/Shanghai,30.65,113.1
Jingmen,632954,CN,Asia/Shanghai,31.03361,112.20472
Jingzhou,1052282,CN,Asia/Shanghai,30.35028,112.19028
Jinhua,1463990,CN,Asia/Shanghai,29.10678,119.64421
Jining,1241012,CN,Asia/Shanghai,35.405,116.58139
Jining,258757,CN,Asia/Shanghai,41.0275,113.10583
Jinjiang,1416151,CN,Asia/Shanghai,24.81978,118.57415
Jinzhong,1226617,CN,Asia/Shanghai,37.68403,112.75471
Jinzhou,215386,CN,Asia/Shanghai,39.1,121.71667
Jinzhou,604269,CN,Asia/Shanghai,41.10778,121.14167
Jiujiang,1164268,CN,Asia/Shanghai,29.70475,116.00206
Jiuquan,428346,CN,Asia/Shanghai,39.74318,98.51736
Jixi,403759,CN,Asia/Shanghai,45.29322,130.96217
Jiyuan,242143,CN,Asia/Shanghai,35.08912,112.58815
Jizhou,362013,CN,Asia/Shanghai,37.55054,115.56871
Jodhpur,1056191,IN,Asia/Kolkata,26.26841,73.00594
Johannesburg,9418183,ZA,Africa/Johannesburg,-26.20227,28.04363
Johor Bahru,858118,MY,Asia/Kuala_Lumpur,1.4655,103.7578
Joinville,461304,BR,America/Sao_Paulo,-26.30444,-48.84556
Jos,1040000,NG,Africa/Lagos,9.92849,8.89212
José C. Paz,230208,AR,America/Argentina/Buenos_Aires,-34.51541,-58.76813
João Pessoa,817511,BR,America/Fortaleza,-7.115,-34.86306
Juazeiro,237821,BR,America/Bahia,-9.41167,-40.49861
Juazeiro do Norte,225230,BR,America/Fortaleza,-7.21306,-39.31528
Juba,450000,SS,Africa/Juba,4.85165,31.58247
Juiz de Fora,573285,BR,America/Sao_Paulo,-21.76417,-43.35028
Juliaca,245675,PE,America/Lima,-15.5,-70.13333
Jundiaí,443221,BR,America/Sao_Paulo,-23.18639,-46.88417
Jurong Town,262730,SG,Asia/Singapore,1.33417,103.72278
Jurong West,257470,SG,Asia/Singapore,1.35028,103.72278
Jālna,285577,IN,Asia/Kolkata,19.84102,75.88636
Jūnāgadh,319462,IN,Asia/Kolkata,21.51966,70.45981
Kabinda,219396,CD,Africa/Lubumbashi,-6.13791,24.48179
Kabul,4434550,AF,Asia/Kabul,34.52813,69.17233
Kabwe,288598,ZM,Africa/Lusaka,-14.4469,28.44644
Kadapa,344893,IN,Asia/Kolkata,14.47995,78.82346
Kaduna,1850000,NG,Africa/Lagos,10.52641,7.43879
Kaech'ŏn,319554,KP,Asia/Pyongyang,39.70056,125.89333
Kaesŏng,338155,KP,Asia/Pyongyang,37.97083,126.55444
Kagoshima,595049,JP,Asia/Tokyo,31.56667,130.55
Kahama,453654,TZ,Africa/Dar_es_Salaam,-3.83333,32.6
Kahramanmaraş,384953,TR,Europe/Istanbul,37.5847,36.92641
Kaifeng,1451741,CN,Asia/Shanghai,34.7986,114.30742
Kaili,275745,CN,Asia/Shanghai,26.58583,107.97972
Kakamega,1867579,KE,Africa/Nairobi,0.28422,34.75229
Kakogawachō-honmachi,271634,JP,Asia/Tokyo,34.76943,134.82905
Kalaburagi,543147,IN,Asia/Kolkata,17.33583,76.83757
Kaliningrad,475056,RU,Europe/Kaliningrad,54.70649,20.51095
Kalininskiy,504641,RU,Europe/Moscow,59.99675,30.3899
Kallakurichi,1682687,IN,Asia/Kolkata,11.73379,78.95925
Kaluga,340851,RU,Europe/Moscow,54.5293,36.27542
Kalyān,1262255,IN,Asia/Kolkata,19.2437,73.13554
Kamina,200184,CD,Africa/Lubumbashi,-8.73508,24.99798
Kampala,1680600,UG,Africa/Kampala,0.31628,32.58219
Kampong Baharu Cheras Batu Sebelas,232100,MY,Asia/Kuala_Lumpur,3.05,101.76667
Kampung Baru Subang,833571,MY,Asia/Kuala_Lumpur,3.15,101.53333
Kampung Kangkar Teberau,412373,MY,Asia/Kuala_Lumpur,1.532,103.7549
Kampung Larkin Lama,500000,MY,Asia/Kuala_Lumpur,1.5024,103.744
Kamyanske,226845,UA,Europe/Kyiv,48.51716,34.60617
Kananga,1247168,CD,Africa/Lubumbashi,-5.89624,22.41659
Kanayannur,851406,IN,Asia/Kolkata,9.96667,76.26667
Kanazawa,466029,JP,Asia/Tokyo,36.6,136.61667
Kanchipuram,221715,IN,Asia/Kolkata,12.83515,79.70006
Kandahār,523300,AF,Asia/Kabul,31.61332,65.71013
Kanggye,209530,KP,Asia/Pyongyang,40.96946,126.58523
Kankan,221428,GN,Africa/Conakry,10.38542,-9.30568
Kano,4910000,NG,Africa/Lagos,12.00012,8.51672
Kanpur,2823249,IN,Asia/Kolkata,26.46523,80.34975
Kansas City,475378,US,America/Chicago,39.09973,-94.57857
Kaohsiung,2737660,TW,Asia/Taipei,22.61626,120.31333
Kaolack,298904,SN,Africa/Dakar,14.15197,-16.07259
Kapar,269627,MY,Asia/Kuala_Lumpur,3.13333,101.38333
Karabağlar,458000,TR,Europe/Istanbul,38.382,27.132
Karachi,11624219,PK,Asia/Karachi,24.8608,67.0104
Karagandy,497777,KZ,Asia/Almaty,49.80187,73.10211
Karaj,1448075,IR,Asia/Tehran,35.83266,50.99155
Karamay,261445,CN,Asia/Urumqi,45.58473,84.88724
Karbala,1218732,IQ,Asia/Baghdad,32.61603,44.02488
Kariega,291052,ZA,Africa/Johannesburg,-33.75562,25.40074
Karlsruhe,283799,DE,Europe/Berlin,49.00937,8.40444
Karnaphuli,203697,BD,Asia/Dhaka,22.69056,92.23472
Karnāl,302140,IN,Asia/Kolkata,29.69197,76.98448
Karol Bāgh,505241,IN,Asia/Kolkata,28.65136,77.19072
Karur,234191,IN,Asia/Kolkata,10.95771,78.08095
Karāwalnagar,224281,IN,Asia/Kolkata,28.72712,77.27047
Karīmnagar,289821,IN,Asia/Kolkata,18.43915,79.12856
Kasangati,207800,UG,Africa/Kampala,0.43803,32.60246
Kashgar,506640,CN,Asia/Urumqi,39.46718,75.98675
Kashiwa,433436,JP,Asia/Tokyo,35.86224,139.97732
Kassala,401477,SD,Africa/Khartoum,15.45099,36.39998
Kasugai,308681,JP,Asia/Tokyo,35.24762,136.97229
Kasukabe,229792,JP,Asia/Tokyo,35.98308,139.74966
Kasulu,238321,TZ,Africa/Dar_es_Salaam,-4.57667,30.1025
Kasur,510875,PK,Asia/Karachi,31.11866,74.45025
Kathmandu,1442271,NP,Asia/Kathmandu,27.70169,85.3206
Katihar,240838,IN,Asia/Kolkata,25.53852,87.57044
Katowice,317316,PL,Europe/Warsaw,50.25841,19.02754
Katsina,670000,NG,Africa/Lagos,12.99082,7.60177
Katsushika,453093,JP,Asia/Tokyo,35.73333,139.85
Kaunas,289380,LT,Europe/Vilnius,54.90272,23.90961
Kawagoe,354571,JP,Asia/Tokyo,35.90861,139.48528
Kawaguchi,607373,JP,Asia/Tokyo,35.80521,139.71072
Kawasaki,1538262,JP,Asia/Tokyo,35.52056,139.71722
Kayseri,1434357,TR,Europe/Istanbul,38.73222,35.48528
Kazan,1243500,RU,Europe/Moscow,55.78874,49.12214
Kediri,235143,ID,Asia/Jakarta,-7.81667,112.01667
Keelung,362487,TW,Asia/Taipei,25.13089,121.74094
Kelar,250000,IQ,Asia/Baghdad,34.62805,45.31852
Kemerovo,558973,RU,Asia/Novokuznetsk,55.33333,86.08333
Kendari,345107,ID,Asia/Makassar,-3.9778,122.51507
Kenitra,470949,MA,Africa/Casablanca,34.26101,-6.5802
Kerman,577514,IR,Asia/Tehran,30.28321,57.07879
Kermanshah,621100,IR,Asia/Tehran,34.31417,47.065
Khabarovsk,618150,RU,Asia/Vladivostok,48.48032,135.08822
Khabarovsk Vtoroy,578303,RU,Asia/Vladivostok,48.43787,135.12994
Khamis Mushait,387553,SA,Asia/Riyadh,18.3,42.73333
Khandwa,200738,IN,Asia/Kolkata,21.82427,76.35086
Kharagpur,219665,IN,Asia/Kolkata,22.33971,87.32501
Kharkiv,1433886,UA,Europe/Kyiv,49.98177,36.25475
Khartoum,1974647,SD,Africa/Khartoum,15.55177,32.53241
Khartoum North,1012211,SD,Africa/Khartoum,15.64925,32.53458
Kherson,283649,UA,Europe/Kyiv,46.63695,32.61458
Khimki,239967,RU,Europe/Moscow,55.9001,37.42848
Khmelnytskyi,274582,UA,Europe/Kyiv,49.41835,26.97936
Khomeynī Shahr,277334,IR,Asia/Tehran,32.6856,51.53609
Khorramabad,329825,IR,Asia/Tehran,33.48778,48.35583
Khorramshahr,330606,IR,Asia/Tehran,30.44079,48.18428
Khouribga,214241,MA,Africa/Casablanca,32.88108,-6.9063
Khulna,1500689,BD,Asia/Dhaka,22.80979,89.56439
Kibaha,265360,TZ,Africa/Dar_es_Salaam,-6.76667,38.91667
Kiel,246601,DE,Europe/Berlin,54.32133,10.13489
Kielce,208598,PL,Europe/Warsaw,50.87033,20.62752
Kigali,1132686,RW,Africa/Kigali,-1.94995,30.05885
Kigoma,232388,TZ,Africa/Dar_es_Salaam,-4.87694,29.62667
Kikuyu,323881,KE,Africa/Nairobi,-1.24627,36.66291
Kikwit,509367,CD,Africa/Kinshasa,-5.04098,18.81619
Kimhae,531966,KR,Asia/Seoul,35.23417,128.88111
Kindu,234651,CD,Africa/Lubumbashi,-2.94373,25.92237
Kingston,937700,JM,America/Jamaica,17.99702,-76.79358
Kingston upon Hull,314018,GB,Europe/London,53.7446,-0.33525
Kinshasa,16000000,CD,Africa/Kinshasa,-4.32758,15.31357
Kira,462900,UG,Africa/Kampala,0.4,32.63333
Kirkuk,1031000,IQ,Asia/Baghdad,35.46806,44.39222
Kirov,507155,RU,Europe/Kirov,58.59665,49.66007
Kirāri Sulemānnagar,283211,IN,Asia/Kolkata,28.69736,77.0648
Kisangani,1181788,CD,Africa/Lubumbashi,0.51528,25.19099
Kishiwada,205561,JP,Asia/Tokyo,34.46667,135.36667
Kismayo,234852,SO,Africa/Mogadishu,-0.35817,42.54536
Kisumu,397957,KE,Africa/Nairobi,-0.10221,34.76171
Kita,332140,JP,Asia/Tokyo,35.75264,139.73348
Kitakyushu,940978,JP,Asia/Tokyo,33.85181,130.85034
Kitchener,256885,CA,America/Toronto,43.42537,-80.5112
Kitwe,665961,ZM,Africa/Lusaka,-12.80243,28.21323
Klang,879867,MY,Asia/Kuala_Lumpur,3.03667,101.44333
Klerksdorp,227039,ZA,Africa/Johannesburg,-26.85213,26.66672
Kobe,1525152,JP,Asia/Tokyo,34.6913,135.183
Kochi,633553,IN,Asia/Kolkata,9.93988,76.26022
Kochi,332059,JP,Asia/Tokyo,33.55,133.53333
Kolhāpur,549236,IN,Asia/Kolkata,16.69563,74.23167
Kolkata,4631392,IN,Asia/Kolkata,22.56263,88.36304
Kollam,367107,IN,Asia/Kolkata,8.88113,76.58469
Kolwezi,790248,CD,Africa/Lubumbashi,-10.71484,25.46674
Komsomolsk-on-Amur,275908,RU,Asia/Vladivostok,50.55034,137.00995
Kon Tum,205762,VN,Asia/Ho_Chi_Minh,14.35451,108.00759
Konibodom,211100,TJ,Asia/Dushanbe,40.29414,70.43122
Konya,1433861,TR,Europe/Istanbul,37.87135,32.48464
Korba,419146,IN,Asia/Kolkata,22.3458,82.69633
Korhogo,440926,CI,Africa/Abidjan,9.45803,-5.62961
Korla,549324,CN,Asia/Urumqi,41.76055,86.15231
Koshigaya,345353,JP,Asia/Tokyo,35.89035,139.78916
Kostanay,210000,KZ,Asia/Qostanay,53.21435,63.62463
Kosti,345068,SD,Africa/Khartoum,13.1629,32.66347
Kostroma,277280,RU,Europe/Moscow,57.76647,40.92686
Kota,1001694,IN,Asia/Kolkata,25.18254,75.83907
Kota Bharu,568900,MY,Asia/Kuala_Lumpur,6.12361,102.24333
Kota Damansara,500000,MY,Asia/Kuala_Lumpur,3.15454,101.58022
Kota Kinabalu,500421,MY,Asia/Kuching,5.9749,116.0724
Kota Kuala Muda,544984,MY,Asia/Kuala_Lumpur,5.58822,100.37085
Kotli,640000,PK,Asia/Karachi,33.51836,73.9022
Kotō,543730,JP,Asia/Tokyo,32.77856,130.74537
Koumassi,412282,CI,Africa/Abidjan,5.29716,-3.96753
Koutiala,218031,ML,Africa/Bamako,12.38723,-5.46507
Kowloon,2232339,HK,Asia/Hong_Kong,22.31667,114.18333
Kowloon City,418732,HK,Asia/Hong_Kong,22.33047,114.19222
Kozhikode,550440,IN,Asia/Kolkata,11.24802,75.7804
Košice,225044,SK,Europe/Bratislava,48.71395,21.25808
Kraków,755050,PL,Europe/Warsaw,50.06143,19.93658
Krasnodar,899541,RU,Europe/Moscow,45.04484,38.97603
Krasnogvargeisky,337091,RU,Europe/Moscow,59.97305,30.47607
Krasnoyarsk,1090811,RU,Asia/Krasnoyarsk,56.02668,92.90765
Krefeld,237984,DE,Europe/Berlin,51.33645,6.55381
Kremenchuk,217710,UA,Europe/Kyiv,49.06253,33.40484
Kropyvnytskyy,219676,UA,Europe/Kyiv,48.50834,32.26618
Krugersdorp,378821,ZA,Africa/Johannesburg,-26.08577,27.77515
Kryvyy Rih,603904,UA,Europe/Kyiv,47.90572,33.39404
Kuala Lumpur,1453975,MY,Asia/Kuala_Lumpur,3.1412,101.68653
Kuala Terengganu,426500,MY,Asia/Kuala_Lumpur,5.3302,103.1408
Kuantan,548014,MY,Asia/Kuala_Lumpur,3.8077,103.326
Kuching,402738,MY,Asia/Kuching,1.55,110.33333
Kukatpally,341709,IN,Asia/Kolkata,17.48486,78.41376
Kulti,305405,IN,Asia/Kolkata,23.73166,86.84372
Kumamoto,738907,JP,Asia/Tokyo,32.80589,130.69181
Kumasi,2544530,GH,Africa/Accra,6.68848,-1.62443
Kumba,225046,CM,Africa/Douala,4.6363,9.4469
Kunming,3855346,CN,Asia/Shanghai,25.03889,102.71833
Kunshan,2092496,CN,Asia/Shanghai,31.37762,120.95431
Kupang,442758,ID,Asia/Makassar,-10.17083,123.60694
Kurashiki,483576,JP,Asia/Tokyo,34.58333,133.76667
Kure,214592,JP,Asia/Tokyo,34.23222,132.56658
Kurgan,309285,RU,Asia/Yekaterinburg,55.45,65.33333
Kurnool,460184,IN,Asia/Kolkata,15.82887,78.03602
Kursk,448733,RU,Europe/Moscow,51.73758,36.18712
Kurume,303579,JP,Asia/Tokyo,33.31667,130.51667
Kushinagar,274403,IN,Asia/Kolkata,26.74134,83.88689
Kwai Chung,331600,HK,Asia/Hong_Kong,22.36828,114.13877
Kyain Seikgyi Township,246065,MM,Asia/Yangon,15.82288,98.25257
Kyengera,285400,UG,Africa/Kampala,0.29517,32.50159
Kyiv,2797553,UA,Europe/Kyiv,50.45466,30.5238
Kyoto,1463723,JP,Asia/Tokyo,35.02107,135.75385
Kyzylorda,354800,KZ,Asia/Qyzylorda,44.85278,65.50917
Köln,963395,DE,Europe/Berlin,50.93333,6.95
Kāfrul,339734,BD,Asia/Dhaka,23.78822,90.37359
Kākināda,384182,IN,Asia/Kolkata,16.96036,82.23809
Kāmārhāti,332965,IN,Asia/Kolkata,22.67111,88.37472
Kōriyama,327692,JP,Asia/Tokyo,37.4,140.38333
Kŭlob,214700,TJ,Asia/Dushanbe,37.91459,69.78454
L'Hospitalet de Llobregat,257038,ES,Europe/Madrid,41.35967,2.10028
La Ceiba,222055,HN,America/Tegucigalpa,15.75971,-86.78221
La Paz,2004652,BO,America/La_Paz,-16.5,-68.15
La Paz,250141,MX,America/Mazatlan,24.14231,-110.31316
La Pintana,201178,CL,America/Santiago,-33.58331,-70.63419
La Romana,208437,DO,America/Santo_Domingo,18.42332,-68.96635
Lagos,15388000,NG,Africa/Lagos,6.45407,3.39467
Lahore,13004135,PK,Asia/Karachi,31.558,74.35071
Laibin,910282,CN,Asia/Shanghai,23.74743,109.22222
Laiwu,989535,CN,Asia/Shanghai,36.19278,117.65694
Laixi,341470,CN,Asia/Shanghai,36.85917,120.52694
Lal Bahadur Nagar,261987,IN,Asia/Kolkata,17.34769,78.55757
Langfang,868066,CN,Asia/Shanghai,39.52079,116.71471
Lankaran,240300,AZ,Asia/Baku,38.75428,48.85062
Lanzhou,3000000,CN,Asia/Shanghai,36.05701,103.83987
Laohekou,253112,CN,Asia/Shanghai,32.38583,111.66778
Lapu-Lapu City,350467,PH,Asia/Manila,10.31028,123.94944
Laredo,256153,US,America/Chicago,27.50641,-99.50754
Larkana,364033,PK,Asia/Karachi,27.55898,68.21204
Las Palmas de Gran Canaria,378517,ES,Atlantic/Canary,28.09973,-15.41343
Las Piñas,590000,PH,Asia/Manila,14.45056,120.98278
Las Tunas,203684,CU,America/Havana,20.96135,-76.95192
Las Vegas,641903,US,America/Los_Angeles,36.17497,-115.13722
Latacunga,205624,EC,America/Guayaquil,-0.93424,-78.6152
Latakia,709000,SY,Asia/Damascus,35.53125,35.79088
Latina,256644,ES,Europe/Madrid,40.38897,-3.74569
Latur,382940,IN,Asia/Kolkata,18.39721,76.56784
Lauro de Freitas,203331,BR,America/Bahia,-12.89444,-38.32722
Laval,438366,CA,America/Toronto,45.56995,-73.692
Leeds,536280,GB,Europe/London,53.79648,-1.54785
Leicester,368600,GB,Europe/London,52.6386,-1.13169
Leipzig,504971,DE,Europe/Berlin,51.33962,12.37129
Lekki,401272,NG,Africa/Lagos,6.41222,4.0947
Leshan,662814,CN,Asia/Shanghai,29.56227,103.76386
Lexington,320347,US,America/New_York,37.98869,-84.47772
Lexington-Fayette,314488,US,America/New_York,38.0498,-84.45855
León de los Aldama,1579803,MX,America/Mexico_City,21.12908,-101.67374
Lhoka,353700,CN,Asia/Shanghai,29.24301,91.77239
Lianshan,313247,CN,Asia/Shanghai,40.76432,120.85327
Lianyungang,2001009,CN,Asia/Shanghai,34.59845,119.21556
Liaocheng,1229768,CN,Asia/Shanghai,36.45064,116.00247
Liaoyang,687890,CN,Asia/Shanghai,41.27194,123.17306
Libertad,250353,PH,Asia/Manila,8.94417,125.50194
Libreville,846090,GA,Africa/Libreville,0.39241,9.45356
Lichinga,281341,MZ,Africa/Maputo,-13.31278,35.24056
Lijiang,211151,CN,Asia/Shanghai,26.86879,100.22072
Likasi,635768,CD,Africa/Lubumbashi,-10.98303,26.7384
Lille,234475,FR,Europe/Paris,50.63297,3.05858
Lilongwe,1115815,MW,Africa/Blantyre,-13.96692,33.78725
Lima,7737002,PE,America/Lima,-12.04318,-77.02824
Limeira,291869,BR,America/Sao_Paulo,-22.56472,-47.40167
Lincang,323708,CN,Asia/Shanghai,23.87972,100.09455
Lincoln,294757,US,America/Chicago,40.8,-96.66696
Linfen,959198,CN,Asia/Shanghai,36.08889,111.51889
Linqu,299646,CN,Asia/Shanghai,36.51556,118.53972
Linxia Chengguanzhen,274466,CN,Asia/Shanghai,35.60028,103.20639
Linyi,2743843,CN,Asia/Shanghai,35.06306,118.34278
Linz,204846,AT,Europe/Vienna,48.30639,14.28611
Lipa City,212287,PH,Asia/Manila,13.9411,121.1631
Lipetsk,509735,RU,Europe/Moscow,52.60311,39.57076
Lisbon,517802,PT,Europe/Lisbon,38.72509,-9.1498
Lishui,451418,CN,Asia/Shanghai,28.46042,119.91029
Little Rock,202591,US,America/Chicago,34.74648,-92.28959
Liupanshui,1320825,CN,Asia/Shanghai,26.59444,104.83333
Liuzhou,1436599,CN,Asia/Shanghai,24.32405,109.40698
Liverpool,496770,GB,Europe/London,53.41058,-2.97794
Ljubljana,272220,SI,Europe/Ljubljana,46.05108,14.50513
Loa Janan,212816,ID,Asia/Makassar,-0.58295,117.09503
Lobito,357950,AO,Africa/Luanda,-12.3644,13.53601
Logan City,326615,AU,Australia/Brisbane,-27.63917,153.10944
Loja,274112,EC,America/Guayaquil,-3.99313,-79.20422
Lomé,2188376,TG,Africa/Lome,6.12874,1.22154
London,422324,CA,America/Toronto,42.98339,-81.23304
London,8961989,GB,Europe/London,51.50853,-0.12574
Londrina,588125,BR,America/Sao_Paulo,-23.31028,-51.16278
Long Beach,474140,US,America/Los_Angeles,33.76696,-118.18923
Long Xuyên,286140,VN,Asia/Ho_Chi_Minh,10.38639,105.43518
Longling County,270000,CN,Asia/Shanghai,24.58663,98.68934
Longshan,465249,CN,Asia/Shanghai,42.88545,125.1367
Longueuil,229330,CA,America/Toronto,45.5152,-73.46818
Longyan,1025087,CN,Asia/Shanghai,25.07485,117.01775
Los Angeles,3820914,US,America/Los_Angeles,34.05223,-118.24368
Los Mochis,256613,MX,America/Mazatlan,25.79097,-108.99825
Los Teques,252242,VE,America/Caracas,10.34954,-67.04266
Loudi,497171,CN,Asia/Shanghai,27.73444,111.99444
Louisville,624444,US,America/Kentucky/Louisville,38.25424,-85.75941
Lu'an,1644344,CN,Asia/Shanghai,31.73561,116.51688
Luancheng,597130,CN,Asia/Shanghai,37.88452,114.64629
Luanda,2776168,AO,Africa/Luanda,-8.83682,13.23432
Lubango,600751,AO,Africa/Luanda,-14.91717,13.4925
Lubbock,249042,US,America/Chicago,33.57786,-101.85517
Lublin,360044,PL,Europe/Warsaw,51.25,22.56667
Lubuklinggau,234166,ID,Asia/Jakarta,-3.2945,102.8614
Lubumbashi,2221925,CD,Africa/Lubumbashi,-11.66089,27.47938
Lucena,228758,PH,Asia/Manila,13.93139,121.61722
Lucknow,2472011,IN,Asia/Kolkata,26.83928,80.92313
Ludhiana,1618879,IN,Asia/Kolkata,30.91204,75.85379
Luena,273675,AO,Africa/Luanda,-11.78333,19.91667
Luhansk,397677,UA,Europe/Kyiv,48.56814,39.30553
Luohe,1294974,CN,Asia/Shanghai,33.56394,114.04272
Luohu District,1143801,CN,Asia/Shanghai,22.54721,114.13149
Luojiang,212186,CN,Asia/Shanghai,31.30497,104.50484
Luoyang,1390581,CN,Asia/Shanghai,34.67345,112.43684
Lusaka,2212301,ZM,Africa/Lusaka,-15.40669,28.28713
Luton,225262,GB,Europe/London,51.87967,-0.41748
Lutsk,215986,UA,Europe/Kyiv,50.75784,25.35024
Luxor,422407,EG,Africa/Cairo,25.69893,32.6421
Luzhou,998900,CN,Asia/Shanghai,28.8903,105.42575
Luziânia,209129,BR,America/Sao_Paulo,-16.2525,-47.95028
Lviv,717273,UA,Europe/Kyiv,49.83826,24.02324
Lyon,522969,FR,Europe/Paris,45.74846,4.84671
Lübeck,212207,DE,Europe/Berlin,53.86893,10.68729
Lüliang,3346500,CN,Asia/Shanghai,37.5192,111.14436
Lạng Sơn,200108,VN,Asia/Bangkok,21.85264,106.76101
Ma On Shan,215200,HK,Asia/Hong_Kong,22.40613,114.24079
Ma'anshan,741531,CN,Asia/Shanghai,31.68579,118.51008
Macapá,512902,BR,America/Belem,0.03889,-51.06639
Macau,649335,MO,Asia/Macau,22.20056,113.54611
Maceió,1031597,BR,America/Maceio,-9.66583,-35.73528
Machala,289141,EC,America/Guayaquil,-3.25886,-79.95876
Machida,431079,JP,Asia/Tokyo,35.54028,139.45083
Madinah,1300000,SA,Asia/Riyadh,24.46861,39.61417
Madison,280305,US,America/Chicago,43.07305,-89.40123
Madiun,202544,ID,Asia/Jakarta,-7.6298,111.5239
Madrid,3255944,ES,Europe/Madrid,40.4165,-3.70256
Madurai,1465625,IN,Asia/Kolkata,9.919,78.11953
Madīnat an Naşr,668413,EG,Africa/Cairo,30.06667,31.3
Maebashi,332149,JP,Asia/Tokyo,36.4,139.08333
Magdalena Contreras,238431,MX,America/Mexico_City,19.33212,-99.21118
Magdeburg,235775,DE,Europe/Berlin,52.12773,11.62916
Magnitogorsk,413351,RU,Asia/Yekaterinburg,53.39808,59.0066
Magugpo Poblacion,233254,PH,Asia/Manila,7.4475,125.8046
Magé,244092,BR,America/Sao_Paulo,-22.65278,-43.04056
Mahajanga,260556,MG,Indian/Antananarivo,-15.71667,46.31667
Maheshtala,448317,IN,Asia/Kolkata,22.50862,88.25322
Mahilyow,353110,BY,Europe/Minsk,53.90876,30.34044
Maiduguri,1110000,NG,Africa/Lagos,11.84692,13.15712
Mainz,217123,DE,Europe/Berlin,49.98419,8.2791
Makassar,1423877,ID,Asia/Makassar,-5.14861,119.43194
Makati City,510383,PH,Asia/Manila,14.55027,121.03269
Makhachkala,596356,RU,Europe/Moscow,42.97638,47.50236
Makiivka,338968,UA,Europe/Kyiv,48.04782,37.92576
Makkah,1578722,SA,Asia/Riyadh,21.42664,39.82563
Makurdi,390000,NG,Africa/Lagos,7.73375,8.52139
Malabon,365525,PH,Asia/Manila,14.67333,120.93972
Malacca,579000,MY,Asia/Kuala_Lumpur,2.196,102.2405
Malang,847182,ID,Asia/Jakarta,-7.9797,112.6304
Malanje,455000,AO,Africa/Luanda,-9.54015,16.34096
Malatya,806156,TR,Europe/Istanbul,38.35018,38.31667
Malegaon,481228,IN,Asia/Kolkata,20.54966,74.53462
Malingao,1121974,PH,Asia/Manila,7.16083,124.475
Malir Cantonment,300000,PK,Asia/Karachi,24.94343,67.20591
Mallawī,212628,EG,Africa/Cairo,27.73264,30.84129
Malmö,362133,SE,Europe/Stockholm,55.60587,13.00073
Malolos,261189,PH,Asia/Manila,14.8443,120.81039
Maltepe,427040,TR,Europe/Istanbul,40.93567,29.15507
Man,241969,CI,Africa/Abidjan,7.41251,-7.55383
Man'gyŏngdae-ri,321690,KP,Asia/Pyongyang,38.99182,125.65871
Manado,451916,ID,Asia/Makassar,1.48218,124.84892
Managua,973087,NI,America/Managua,12.13282,-86.2504
Manaus,2219580,BR,America/Manaus,-3.10194,-60.025
Manchester,568996,GB,Europe/London,53.48095,-2.23743
Mandalay,1208099,MM,Asia/Yangon,21.97473,96.08359
Mandaluyong,425000,PH,Asia/Manila,14.57837,121.03522
Mandaluyong City,425758,PH,Asia/Manila,14.5832,121.0409
Mandaue City,331320,PH,Asia/Manila,10.32361,123.92222
Mangaluru,499487,IN,Asia/Kolkata,12.91723,74.85603
Mango,223805,IN,Asia/Kolkata,22.8275,86.21639
Manhattan,1487536,US,America/New_York,40.78343,-73.96625
Manila,1600000,PH,Asia/Manila,14.6042,120.9822
Manisa,243971,TR,Europe/Istanbul,38.61202,27.42647
Manizales,434403,CO,America/Bogota,5.0668,-75.50684
Mannheim,307960,DE,Europe/Berlin,49.4891,8.46694
Mansilingan,454150,PH,Asia/Manila,10.63111,122.97889
Manta,264281,EC,America/Guayaquil,-0.94937,-80.73137
Mantampay,265032,PH,Asia/Manila,8.16667,124.21667
Mantilla,206918,CU,America/Havana,23.06794,-82.34143
Manukau City,362000,NZ,Pacific/Auckland,-36.99282,174.87986
Maoming,1307802,CN,Asia/Shanghai,21.66625,110.91364
Maputo,1254837,MZ,Africa/Maputo,-25.96553,32.58322
Mar del Plata,593337,AR,America/Argentina/Buenos_Aires,-38.00042,-57.5562
Mar'ino,243000,RU,Europe/Moscow,55.65,37.71667
Maracaibo,1752602,VE,America/Caracas,10.64232,-71.61089
Maracanaú,234509,BR,America/Fortaleza,-3.87667,-38.62556
Maracay,464700,VE,America/Caracas,10.24972,-67.59475
Maradi,361702,NE,Africa/Niamey,13.5,7.10174
Marcory,214061,CI,Africa/Abidjan,5.31198,-3.99363
Mardan,300424,PK,Asia/Karachi,34.19794,72.04965
Marg‘ilon,253500,UZ,Asia/Tashkent,40.47237,71.72463
Maricá,211986,BR,America/Sao_Paulo,-22.91944,-42.81861
Marienthal,287101,DE,Europe/Berlin,53.56667,10.08333
Marikina City,450741,PH,Asia/Manila,14.6481,121.1133
Maringá,311724,BR,America/Sao_Paulo,-23.42528,-51.93861
Marka,230100,SO,Africa/Mogadishu,1.71594,44.77166
Markham,338503,CA,America/Toronto,43.86682,-79.2663
Marne La Vallée,318325,FR,Europe/Paris,48.83584,2.64241
Maroua,314122,CM,Africa/Douala,10.59095,14.31593
Marrakesh,995871,MA,Africa/Casablanca,31.63416,-7.99994
Marseille,870731,FR,Europe/Paris,43.29695,5.38107
Maryvale,208189,US,America/Phoenix,33.50199,-112.17765
Marília,240590,BR,America/Sao_Paulo,-22.21389,-49.94583
Marāgheh,262604,IR,Asia/Tehran,37.39206,46.23909
Marāgheh,262604,IR,Asia/Tehran,35.82916,59.63324
Masan,434371,KR,Asia/Seoul,35.12725,126.83149
Maseru,359753,LS,Africa/Maseru,-29.31667,27.48333
Mashhad,2307177,IR,Asia/Tehran,36.29807,59.60567
Masina,485167,CD,Africa/Kinshasa,-4.38361,15.39139
Matadi,425662,CD,Africa/Kinshasa,-5.83861,13.46306
Mataram,429651,ID,Asia/Makassar,-8.58333,116.11667
Mathura,330511,IN,Asia/Kolkata,27.5035,77.67215
Matola,1198988,MZ,Africa/Maputo,-25.96222,32.45889
Matsudo,498575,JP,Asia/Tokyo,35.77995,139.90144
Matsue,203616,JP,Asia/Tokyo,35.48333,133.05
Matsumoto,241145,JP,Asia/Tokyo,36.23333,137.96667
Matsuyama,511192,JP,Asia/Tokyo,33.83916,132.76574
Maturín,647459,VE,America/Caracas,9.74569,-63.18323
Mau,246050,IN,Asia/Kolkata,25.94167,83.56111
Mauá,477552,BR,America/Sao_Paulo,-23.66778,-46.46139
Mawlamyine,438861,MM,Asia/Yangon,16.49051,97.62825
Mazatlán,381583,MX,America/Mazatlan,23.22163,-106.41885
Mazār-e Sharīf,523300,AF,Asia/Kabul,36.70904,67.11087
Mbandaka,455011,CD,Africa/Kinshasa,0.04865,18.26034
Mbarara,221300,UG,Africa/Kampala,-0.60467,30.64851
Mbeya,541603,TZ,Africa/Dar_es_Salaam,-8.9,33.45
Mbour,284189,SN,Africa/Dakar,14.42196,-16.96375
Mbuji-Mayi,2101332,CD,Africa/Lubumbashi,-6.13603,23.58979
Mdantsane,205504,ZA,Africa/Johannesburg,-32.93324,27.77656
Meads,288649,US,America/New_York,38.41258,-82.70905
Medan,2435252,ID,Asia/Jakarta,3.58333,98.66667
Medellín,1999979,CO,America/Bogota,6.245,-75.57151
Meerut,1223184,IN,Asia/Kolkata,28.98002,77.70636
Meguro,288088,JP,Asia/Tokyo,35.6322,139.70174
Meishan,1107742,CN,Asia/Shanghai,30.04392,103.83696
Meizhou,992351,CN,Asia/Shanghai,24.28859,116.11768
Mek'ele,457900,ET,Africa/Addis_Ababa,13.49667,39.47528
Meknes,568295,MA,Africa/Casablanca,33.89352,-5.54727
Melbourne,5350705,AU,Australia/Melbourne,-37.814,144.96332
Memphis,633104,US,America/Chicago,35.14953,-90.04898
Mengzi,595100,CN,Asia/Shanghai,23.36779,103.38212
Menongue,251178,AO,Africa/Luanda,-14.6585,17.69099
Merkezefendi,280341,TR,Europe/Istanbul,37.80544,29.04236
Merlo,268961,AR,America/Argentina/Buenos_Aires,-34.66536,-58.72744
Mersin,537842,TR,Europe/Istanbul,36.81196,34.63886
Mesa,471825,US,America/Phoenix,33.42227,-111.82264
Messina,219948,IT,Europe/Rome,38.19394,15.55256
Mexicali,1032686,MX,America/Tijuana,32.62781,-115.45446
Mexico City,12294193,MX,America/Mexico_City,19.42847,-99.12766
Miami,487014,US,America/New_York,25.77427,-80.19366
Mianyang,1550000,CN,Asia/Shanghai,31.46784,104.68168
"Mianzhu, Deyang, Sichuan",510000,CN,Asia/Shanghai,31.33786,104.22057
Miguel Hidalgo,372889,MX,America/Mexico_City,19.43411,-99.20024
Milan,1371498,IT,Europe/Rome,45.46427,9.18951
Milton Keynes,256385,GB,Europe/London,52.04172,-0.75583
Milwaukee,563531,US,America/Chicago,43.0389,-87.90647
Minamirinkan,224015,JP,Asia/Tokyo,35.49527,139.44279
Minato,375339,JP,Asia/Tokyo,34.2152,135.1501
Minato City,260486,JP,Asia/Tokyo,35.6581,139.7515
Mingora,279914,PK,Asia/Karachi,34.7795,72.36265
Minna,425000,NG,Africa/Lagos,9.61524,6.54776
Minneapolis,410939,US,America/Chicago,44.97997,-93.26384
Minsk,1742124,BY,Europe/Minsk,53.90019,27.56653
Minya,283605,EG,Africa/Cairo,28.09193,30.75813
Miri,300543,MY,Asia/Kuching,4.39928,113.99163
Mirpur Khas,267833,PK,Asia/Karachi,25.5276,69.01255
Mirpur Model Thana,546503,BD,Asia/Dhaka,23.80931,90.36093
Mirzāpur,220029,IN,Asia/Kolkata,25.1449,82.56534
Misratah,355657,LY,Africa/Tripoli,32.37535,15.09254
Mississauga,717961,CA,America/Toronto,43.5789,-79.6583
Mito,270685,JP,Asia/Tokyo,36.35,140.45
Mixco,465773,GT,America/Guatemala,14.63077,-90.60711
Miyazaki,401339,JP,Asia/Tokyo,31.91667,131.41667
Modesto,211266,US,America/Los_Angeles,37.6391,-120.99688
Mogadishu,2587183,SO,Africa/Mogadishu,2.03711,45.34375
Mogi das Cruzes,325746,BR,America/Sao_Paulo,-23.52278,-46.18833
Mohammedia,227799,MA,Africa/Casablanca,33.68607,-7.38298
Mohāmmadpur,527571,BD,Asia/Dhaka,24.89843,88.52844
Mokotów,217683,PL,Europe/Warsaw,52.1934,21.03487
Mokpo,268402,KR,Asia/Seoul,34.81282,126.39181
Mombasa,1208333,KE,Africa/Nairobi,-4.05466,39.66359
Monclova,215271,MX,America/Monterrey,26.90687,-101.42056
Monrovia,1542549,LR,Africa/Monrovia,6.30054,-10.7969
Monterrey,1135512,MX,America/Monterrey,25.68435,-100.31721
Montería,490935,CO,America/Bogota,8.75081,-75.87823
Montes Claros,414240,BR,America/Sao_Paulo,-16.735,-43.86167
Montevideo,1270737,UY,America/Montevideo,-34.90328,-56.18816
Montpellier,248252,FR,Europe/Paris,43.61093,3.87635
Montréal,1762949,CA,America/Toronto,45.50884,-73.58781
Morelia,743275,MX,America/Mexico_City,19.70078,-101.18443
Morena,200482,IN,Asia/Kolkata,26.49892,77.99534
Moreno Valley,204198,US,America/Los_Angeles,33.93752,-117.23059
Morioka,290700,JP,Asia/Tokyo,39.7,141.15
Morogoro,471409,TZ,Africa/Dar_es_Salaam,-6.82102,37.66122
Morvi,210451,IN,Asia/Kolkata,22.81731,70.8377
Morādābād,721139,IN,Asia/Kolkata,28.83893,78.77684
Moscow,10381222,RU,Europe/Moscow,55.75222,37.61556
Moshi,221733,TZ,Africa/Dar_es_Salaam,-3.35,37.33333
Mossamedes,255000,AO,Africa/Luanda,-15.19611,12.15222
Mossoró,264577,BR,America/Fortaleza,-5.1875,-37.34417
Mosul,1683000,IQ,Asia/Baghdad,36.335,43.11889
Mpanda,204338,TZ,Africa/Dar_es_Salaam,-6.34379,31.06951
Mubi,225705,NG,Africa/Lagos,10.26858,13.26701
Mudanjiang,665915,CN,Asia/Shanghai,44.54804,129.62594
Mueang Nonthaburi,254375,TH,Asia/Bangkok,13.86075,100.51477
Mukalla,594951,YE,Asia/Aden,14.54248,49.12424
Mukim Pulai,505661,MY,Asia/Kuala_Lumpur,1.53333,103.66667
Multan,2169915,PK,Asia/Karachi,30.19679,71.47824
Mulugu,297671,IN,Asia/Kolkata,18.191,79.943
Mumbai,12691836,IN,Asia/Kolkata,19.07283,72.88261
Munger,213303,IN,Asia/Kolkata,25.37459,86.47455
Munich,1260391,DE,Europe/Berlin,48.13743,11.57549
Muratpaşa,450000,TR,Europe/Istanbul,36.89157,30.76498
Murcia,460349,ES,Europe/Madrid,37.98704,-1.13004
Murmansk,295374,RU,Europe/Moscow,68.97398,33.09747
Murwāra,221883,IN,Asia/Kolkata,23.83776,80.39405
Musaffah,243341,AE,Asia/Dubai,24.35893,54.48267
Muscat,797000,OM,Asia/Muscat,23.58413,58.40778
Mutare,224802,ZW,Africa/Harare,-18.9707,32.67086
Muzaffargarh,235541,PK,Asia/Karachi,30.07258,71.19379
Muzaffarnagar,349706,IN,Asia/Kolkata,29.47091,77.70332
Muzaffarpur,354462,IN,Asia/Kolkata,26.12259,85.39055
Muzaffarābād,725000,PK,Asia/Karachi,34.37002,73.47082
Mwanza,1104521,TZ,Africa/Dar_es_Salaam,-2.51667,32.9
Mwene,295683,CD,Africa/Lubumbashi,-9.81697,22.87023
Mykolayiv,470011,UA,Europe/Kyiv,46.97625,31.99296
Mymensingh,225126,BD,Asia/Dhaka,24.75636,90.40646
Mysuru,920550,IN,Asia/Kolkata,12.29791,76.63925
Mzuzu,249564,MW,Africa/Blantyre,-11.46556,34.02071
Málaga,591637,ES,Europe/Madrid,36.72016,-4.42034
Mérida,1201000,MX,America/Merida,20.967,-89.62318
Mérida,300000,VE,America/Caracas,8.57899,-71.16922
Móstoles,207095,ES,Europe/Madrid,40.32234,-3.86496
Mönchengladbach,261742,DE,Europe/Berlin,51.18539,6.44172
Münster,270184,DE,Europe/Berlin,51.96236,7.62571
Mỹ Tho,270700,VN,Asia/Ho_Chi_Minh,10.36004,106.35996
N'Djamena,1359526,TD,Africa/Ndjamena,12.10672,15.0444
Naberezhnyye Chelny,509870,RU,Europe/Moscow,55.72545,52.41122
Nacala,239808,MZ,Africa/Maputo,-14.56257,40.68538
Nada,256652,CN,Asia/Shanghai,19.52134,109.57895
Nadiād,225071,IN,Asia/Kolkata,22.69385,72.86157
Nagano,372760,JP,Asia/Tokyo,36.65,138.18333
Nagaoka,266936,JP,Asia/Tokyo,37.45,138.85
Nagar Naluākot,273000,BD,Asia/Dhaka,24.15608,90.7728
Nagareyama,200136,JP,Asia/Tokyo,35.8563,139.90266
Nagasaki,409118,JP,Asia/Tokyo,32.75,129.88333
Nagoya,2332176,JP,Asia/Tokyo,35.18147,136.90641
Nagpur,2405665,IN,Asia/Kolkata,21.14631,79.08491
Naha,317625,JP,Asia/Tokyo,26.213,127.67851
Naihāti,253221,IN,Asia/Kolkata,22.89396,88.41521
Nairobi,4397073,KE,Africa/Nairobi,-1.28333,36.81667
Najaf,482576,IQ,Asia/Baghdad,32.02594,44.34625
Najafgarh,1365000,IN,Asia/Kolkata,28.60922,76.97982
Najafābād,223450,IR,Asia/Tehran,32.63464,51.36525
Najrān,505652,SA,Asia/Riyadh,17.49326,44.12766
Nakano,344880,JP,Asia/Tokyo,35.70449,139.66946
Nakuru,570674,KE,Africa/Nairobi,-0.30719,36.07225
Nalchik,239300,RU,Europe/Moscow,43.49806,43.61889
Nam Định,448225,VN,Asia/Bangkok,20.43389,106.17729
Namangan,713220,UZ,Asia/Tashkent,40.9983,71.67257
Namp'o,455000,KP,Asia/Pyongyang,38.7375,125.40778
Nampula,770379,MZ,Africa/Maputo,-15.11646,39.2666
Nanchang,2357839,CN,Asia/Shanghai,28.68396,115.85306
Nanchong,1858875,CN,Asia/Shanghai,30.79508,106.08473
Nanchuan,204775,CN,Asia/Shanghai,29.15201,107.10335
Nanded,550564,IN,Asia/Kolkata,19.16023,77.31497
Nandyāl,211424,IN,Asia/Kolkata,15.47799,78.4836
Nanjing,9314685,CN,Asia/Shanghai,32.06167,118.77778
Nanning,3839800,CN,Asia/Shanghai,22.81667,108.31667
Nanping,467875,CN,Asia/Shanghai,26.645,118.17361
Nansana,532800,UG,Africa/Kampala,0.36389,32.52861
Nantes,318808,FR,Europe/Paris,47.21725,-1.55336
Nantong,2273326,CN,Asia/Shanghai,32.03028,120.87472
Nanyang,1811812,CN,Asia/Shanghai,32.99472,112.53278
Naples,909048,IT,Europe/Rome,40.85216,14.26811
Nara-shi,367353,JP,Asia/Tokyo,34.68505,135.80485
Narela,800000,IN,Asia/Kolkata,28.85267,77.09288
Narsingdi,281080,BD,Asia/Dhaka,23.92298,90.71768
Nashik,1486053,IN,Asia/Kolkata,19.99727,73.79096
Nashville,689447,US,America/Chicago,36.16589,-86.78444
Nasimshahr,200393,IR,Asia/Tehran,35.56528,51.1583
Nasiriyah,558400,IQ,Asia/Baghdad,31.05799,46.25726
Nassau,227940,BS,America/Nassau,25.05823,-77.34306
Nasīm Shahr,200393,IR,Asia/Tehran,35.56504,51.16332
Natal,896708,BR,America/Fortaleza,-5.795,-35.20944
Natore,369138,BD,Asia/Dhaka,24.41112,88.98673
Naucalpan de Juárez,834434,MX,America/Mexico_City,19.47851,-99.23963
Navi Mumbai,2600000,IN,Asia/Kolkata,19.03681,73.01582
Navotas,249463,PH,Asia/Manila,14.66667,120.95
Nawabshah,363138,PK,Asia/Karachi,26.23939,68.40369
Nay Pyi Taw,925000,MM,Asia/Yangon,19.745,96.12972
Nazrēt,456900,ET,Africa/Addis_Ababa,8.55,39.26667
Naz̧arābād,213388,IR,Asia/Tehran,35.95411,50.60607
Ndola,627503,ZM,Africa/Lusaka,-12.95867,28.63659
Neihu,274538,TW,Asia/Taipei,25.0815,121.58809
Neijiang,1251095,CN,Asia/Shanghai,29.58354,105.06216
Neiva,357392,CO,America/Bogota,2.93001,-75.27973
Nellore,547621,IN,Asia/Kolkata,14.44992,79.98697
Netanya,228204,IL,Asia/Jerusalem,32.33291,34.85992
Neue Neustadt,226851,DE,Europe/Berlin,52.15,11.63333
Neuquén,231198,AR,America/Argentina/Salta,-38.95078,-68.0592
New Cairo,313139,EG,Africa/Cairo,30.03,31.47
New Delhi,317797,IN,Asia/Kolkata,28.62137,77.2148
New Kingston,583958,JM,America/Jamaica,18.00747,-76.78319
New Orleans,362701,US,America/Chicago,29.95465,-90.07507
New South Memphis,641608,US,America/Chicago,35.08676,-90.05676
New Taipei City,4004367,TW,Asia/Taipei,25.06199,121.45703
New Territories,3984077,HK,Asia/Hong_Kong,22.42441,114.11095
New York City,8804190,US,America/New_York,40.71427,-74.00597
Newark,281944,US,America/New_York,40.73566,-74.17237
Newcastle,508437,AU,Australia/Sydney,-32.92953,151.7801
Newcastle,404838,ZA,Africa/Johannesburg,-27.75796,29.9318
Newcastle upon Tyne,300125,GB,Europe/London,54.97328,-1.61396
Neyagawa,238549,JP,Asia/Tokyo,34.76615,135.62759
Neyshābūr,220929,IR,Asia/Tehran,36.21329,58.79575
Ngaoundéré,238196,CM,Africa/Douala,7.32765,13.58472
Nghi Sơn,302210,VN,Asia/Bangkok,19.32746,105.82145
Nha Trang,579000,VN,Asia/Ho_Chi_Minh,12.24507,109.19432
Niamey,1323691,NE,Africa/Niamey,13.51366,2.1098
Nianbo,260184,CN,Asia/Shanghai,36.48,102.41639
Nice,342669,FR,Europe/Paris,43.70313,7.26608
Nicolás Romero,281799,MX,America/Mexico_City,19.64177,-99.3068
Nicosia,200452,CY,Asia/Nicosia,35.17284,33.35397
Niigata,797591,JP,Asia/Tokyo,37.92259,139.04125
Ningbo,3731203,CN,Asia/Shanghai,29.87819,121.54945
Ningde,429260,CN,Asia/Shanghai,26.66167,119.52278
Ninh Hòa,230566,VN,Asia/Ho_Chi_Minh,12.49187,109.12495
Nishi-Tokyo-shi,207388,JP,Asia/Tokyo,35.72526,139.5383
Nishinomiya,485587,JP,Asia/Tokyo,34.71562,135.33199
Niterói,456456,BR,America/Sao_Paulo,-22.88333,-43.10361
Nizhnekamsk,234297,RU,Europe/Moscow,55.63657,51.82447
Nizhnevartovsk,244937,RU,Asia/Yekaterinburg,60.9344,76.5531
Nizhniy Novgorod,1259013,RU,Europe/Moscow,56.32867,44.00205
Nizhny Tagil,381116,RU,Asia/Yekaterinburg,57.91944,59.965
Nizāmābād,311152,IN,Asia/Kolkata,18.67154,78.0988
Niš,250000,RS,Europe/Belgrade,43.32472,21.90333
Nogales,212533,MX,America/Hermosillo,31.30862,-110.94217
Noida,293908,IN,Asia/Kolkata,28.58,77.33
Norfolk,238005,US,America/New_York,36.84681,-76.28522
North Las Vegas,234807,US,America/Los_Angeles,36.19886,-115.1175
North Shore,258697,NZ,Pacific/Auckland,-36.8,174.75
Northampton,245899,GB,Europe/London,52.25,-0.88333
Nottingham,323632,GB,Europe/London,52.9536,-1.15047
Nouakchott,1184530,MR,Africa/Nouakchott,18.08581,-15.9785
Nova Iguaçu,823302,BR,America/Sao_Paulo,-22.75917,-43.45111
Novi Sad,215400,RS,Europe/Belgrade,45.25167,19.83694
Novo Hamburgo,253841,BR,America/Sao_Paulo,-29.67833,-51.13056
Novokuznetsk,539616,RU,Asia/Novokuznetsk,53.75752,87.13599
Novorossiysk,241856,RU,Europe/Moscow,44.73188,37.76176
Novosibirsk,1612833,RU,Asia/Novosibirsk,55.03442,82.94339
Nowrangapur,1220946,IN,Asia/Kolkata,19.23114,82.54826
Nuevo Laredo,373725,MX,America/Matamoros,27.47629,-99.51639
Nukus,332500,UZ,Asia/Samarkand,42.45861,59.60576
Nyala,565734,SD,Africa/Khartoum,12.04888,24.88069
Nyingchi,238900,CN,Asia/Shanghai,29.65812,94.35892
Nzérékoré,226426,GN,Africa/Conakry,7.75624,-8.8179
Nürnberg,515543,DE,Europe/Berlin,49.45421,11.07752
Nāgarpur,238422,BD,Asia/Dhaka,24.05783,89.87696
Nāgercoil,224849,IN,Asia/Kolkata,8.17899,77.43227
Nāngloi Jāt,205596,IN,Asia/Kolkata,28.67957,77.06799
Nārāyanganj,223622,BD,Asia/Dhaka,23.61352,90.50298
Oakland,419267,US,America/Los_Angeles,37.80437,-122.2708
Oakville,213759,CA,America/Toronto,43.45011,-79.68292
Oaxaca,255029,MX,America/Mexico_City,17.06025,-96.72544
Obalende,342000,NG,Africa/Lagos,6.44694,3.41528
Oberhausen,219176,DE,Europe/Berlin,51.47805,6.8625
Odesa,1015826,UA,Europe/Kyiv,46.48572,30.74383
Ogbomoso,433030,NG,Africa/Lagos,8.13373,4.24014
Ojo de Agua,242272,MX,America/Mexico_City,19.68028,-99.01
Okara,533693,PK,Asia/Karachi,30.81029,73.45155
Okayama,724691,JP,Asia/Tokyo,34.65,133.93333
Okazaki,384654,JP,Asia/Tokyo,34.95,137.16667
Okene,479178,NG,Africa/Lagos,7.55122,6.23589
Oklahoma City,681054,US,America/Chicago,35.46756,-97.51643
Oldham,237110,GB,Europe/London,53.54051,-2.1183
Olinda,366754,BR,America/Recife,-8.00889,-34.85528
Olongapo,221178,PH,Asia/Manila,14.82917,120.28278
Omaha,486051,US,America/Chicago,41.25626,-95.94043
Omdurman,1849659,SD,Africa/Khartoum,15.64453,32.47773
Omsk,1172070,RU,Asia/Omsk,54.99244,73.36859
Ondo,375000,NG,Africa/Lagos,7.09316,4.83528
Ongole,208344,IN,Asia/Kolkata,15.50357,80.04454
Onitsha,1553000,NG,Africa/Lagos,6.14978,6.78569
Ooty,233426,IN,Asia/Kolkata,11.4134,76.69521
Oral,330000,KZ,Asia/Oral,51.24601,51.42558
Oran,803329,DZ,Africa/Algiers,35.69906,-0.63588
Ordos,1940653,CN,Asia/Shanghai,39.6086,109.78157
Ordu,229214,TR,Europe/Istanbul,40.97782,37.89047
Orenburg,564773,RU,Asia/Yekaterinburg,51.7727,55.0988
Orlando,334854,US,America/New_York,28.53834,-81.37924
Orsk,246836,RU,Asia/Yekaterinburg,51.23206,58.48802
Oruro,208684,BO,America/La_Paz,-17.97153,-67.0932
Orël,303696,RU,Europe/Moscow,52.95932,36.07805
Orūmīyeh,577307,IR,Asia/Tehran,37.55274,45.07605
Osaka,2753862,JP,Asia/Tokyo,34.69379,135.50107
Osan,238788,KR,Asia/Seoul,37.15222,127.07056
Osasco,728615,BR,America/Sao_Paulo,-23.5325,-46.79167
Osh,322164,KG,Asia/Bishkek,40.52828,72.7985
Oslo,1082575,NO,Europe/Oslo,59.91273,10.74609
Osmaniye,202837,TR,Europe/Istanbul,37.07417,36.24778
Osogbo,645000,NG,Africa/Lagos,7.77104,4.55698
Ostrava,279791,CZ,Europe/Prague,49.83465,18.28204
Ottawa,1017449,CA,America/Toronto,45.41117,-75.69812
Ouagadougou,2415266,BF,Africa/Ouagadougou,12.36566,-1.53388
Oujda,539711,MA,Africa/Casablanca,34.68139,-1.90858
Oulu,209648,FI,Europe/Helsinki,65.01236,25.46816
Oviedo,220020,ES,Europe/Madrid,43.36029,-5.84476
Owerri,545000,NG,Africa/Lagos,5.48363,7.03325
Owo,276574,NG,Africa/Lagos,7.1962,5.58681
Oxnard,207254,US,America/Los_Angeles,34.1975,-119.17705
Oyo,736072,NG,Africa/Lagos,7.85367,3.93235
Paarl,236910,ZA,Africa/Johannesburg,-33.73378,18.97523
Pachuca de Soto,256584,MX,America/Mexico_City,20.11697,-98.73329
Padang,909040,ID,Asia/Jakarta,-0.94924,100.35427
Padangsidempuan,236217,ID,Asia/Jakarta,1.37952,99.27146
Padova,203725,IT,Europe/Rome,45.40797,11.88586
Palangkaraya,293500,ID,Asia/Pontianak,-2.20833,113.91667
Palembang,1668848,ID,Asia/Jakarta,-2.91673,104.7458
Palermo,648260,IT,Europe/Rome,38.1166,13.3636
Pallabi,597574,BD,Asia/Dhaka,23.825,90.37
Pallāvaram,233984,IN,Asia/Kolkata,12.96796,80.15025
Palma,409661,ES,Europe/Madrid,39.56939,2.65024
Palmas,306296,BR,America/Araguaina,-10.16745,-48.32766
Palmira,312519,CO,America/Bogota,3.53944,-76.30361
Palu,373218,ID,Asia/Makassar,-0.90833,119.87083
Pamplona,209672,ES,Europe/Madrid,42.81687,-1.64323
Panamá,408168,PA,America/Panama,8.9936,-79.51973
Panchkula,211355,IN,Asia/Kolkata,30.69461,76.8504
Pangkalpinang,216893,ID,Asia/Jakarta,-2.12914,106.11377
Panipat,295970,IN,Asia/Kolkata,29.38747,76.96825
Panshan,625040,CN,Asia/Shanghai,41.18806,122.04944
